     3.03           OBSERVATION DATA    M: Mixed            RINEX VERSION / TYPE
RTKCONV 2.4.3 b34                       20251027 023734 UTC PGM / RUN BY / DATE 
format: u-blox UBX                                          COMMENT             
log: C:\Users\kowin\Downloads\COM3___115200_251027_021320.ubCOMMENT             
                                                            MARKER NAME         
                                                            MARKER NUMBER       
                                                            MARKER TYPE         
                                                            OBSERVER / AGENCY   
                                                            REC # / TYPE / VERS 
                                                            ANT # / TYPE        
        0.0000        0.0000        0.0000                  APPROX POSITION XYZ 
        0.0000        0.0000        0.0000                  ANTENNA: DELTA H/E/N
G   12 C1C L1C D1C S1C C2L L2L D2L S2L C2S L2S D2S S2S      SYS / # / OBS TYPES 
R    8 C1C L1C D1C S1C C2C L2C D2C S2C                      SYS / # / OBS TYPES 
E    8 C1C L1C D1C S1C C7Q L7Q D7Q S7Q                      SYS / # / OBS TYPES 
J    8 C1C L1C D1C S1C C2L L2L D2L S2L                      SYS / # / OBS TYPES 
S    4 C1C L1C D1C S1C                                      SYS / # / OBS TYPES 
C    8 C2I L2I D2I S2I C7I L7I D7I S7I                      SYS / # / OBS TYPES 
  2025    10    27    02    13   42.9990000     GPS         TIME OF FIRST OBS   
  2025    10    27    02    16   36.9990000     GPS         TIME OF LAST OBS    
G L1C                                                       SYS / PHASE SHIFT   
G L2L  0.00000                                              SYS / PHASE SHIFT   
G L2S  0.00000                                              SYS / PHASE SHIFT   
R L1C                                                       SYS / PHASE SHIFT   
R L2C                                                       SYS / PHASE SHIFT   
E L1C  0.00000                                              SYS / PHASE SHIFT   
E L7Q  0.00000                                              SYS / PHASE SHIFT   
J L1C                                                       SYS / PHASE SHIFT   
J L2L  0.00000                                              SYS / PHASE SHIFT   
S L1C                                                       SYS / PHASE SHIFT   
C L2I                                                       SYS / PHASE SHIFT   
C L7I                                                       SYS / PHASE SHIFT   
  9 R10 -4 R11  5 R12  6 R13 -2 R14 -7 R20 -1 R25  4 R26 -3 GLONASS SLOT / FRQ #
    R27  3                                                  GLONASS SLOT / FRQ #
 C1C    0.000 C1P    0.000 C2C    0.000 C2P    0.000        GLONASS COD/PHS/BIS 
                                                            END OF HEADER       
> 2025 10 27 02 13 42.9990000  0 17                     
G18  21646981.099   113755653.0803      -3354.690          41.000    21646981.308    88640769.2081      -2613.585          39.000                                                                  
S29  36546970.751   192055628.6253       -544.066          36.000  
J03  35636867.878   187272994.5121       -707.996          36.000    35636869.007   145927023.6861       -551.502          38.000  
J07  36142348.563                3       -543.112          32.000    36142351.086   147996877.1101       -423.624          38.000  
G25  21810774.952   114616395.8893       2098.961          35.000                                                                                                                                  
G23  19797560.139   104036879.8443        -60.367          33.000    19797561.586    81067651.0261        -47.048          38.000                                                                  
C08  36037437.340   187656392.0513        234.490          34.000    36037431.276                2        181.576          32.000  
C09  36892801.675   192110497.0883       -101.625          37.000    36892799.505   148552007.4023        -78.507          39.000  
C06  35737548.296   186094795.3483       -251.105          39.000    35737542.274   143900277.7943       -194.022          37.000  
C37  23672177.548   123267247.2173       2380.219          41.000                                                                  
C23  21745761.274   113235887.7473         99.075          41.000                                                                  
R21  22247481.673   119050776.6033      -4151.012          41.000    22247476.321    92595019.4793      -3228.763          34.000  
R09  19395260.246   103569666.3313        860.043          39.000    19395256.650    80554111.0701        668.658          37.000  
S37  36142344.894   189929302.1353       -543.409          36.000  
G12  22346886.286   117433699.4301        739.294          33.000    22346889.015    91506775.7931        576.882          32.000                                                                  
G24  21742219.012                3      -3634.436          29.000                                                                                                                                  
C16  36150571.917   188245508.5883       -445.807          39.000    36150571.759   145563379.8303       -344.707          38.000  
> 2025 10 27 02 13 43.9990000  0 17                     
G18  21647617.512   113759007.7942      -3355.129          42.000    21647618.606    88643383.265       -2614.295          39.000                                                                  
S29  36547074.144   192056172.6582       -544.058          39.000  
J03  35637000.066   187273702.546        -707.861          37.000    35637004.650   145927575.352        -551.672          38.000  
J07  36142449.930                2       -543.895          32.000    36142452.259   147997301.027        -424.439          38.000  
G25  21810372.753   114614296.7352       2099.571          35.000                                                                                                                                  
G23  19797571.215                2        -61.536          30.000    19797573.792    81067698.635         -47.634          35.000                                                                  
C08  36037392.856                2        235.172          31.000    36037385.812                2        180.614          25.000  
C09  36892821.974   192110598.9292       -102.208          37.000    36892818.893   148552086.1502        -78.608          39.000  
C06  35737596.346   186095046.6262       -251.075          38.000    35737590.199   143900472.0792       -193.542          37.000  
C37  23671719.464   123264867.1222       2379.730          40.000                                                                  
C23  21745743.982   113235789.2892         98.225          41.000                                                                  
R21  22248257.315   119054927.6642      -4150.937          40.000    22248251.190    92598248.0862      -3228.690          34.000  
R09  19395098.360   103568807.0842        858.446          38.000    19395094.261    80553442.745         667.804          36.000  
S37  36142448.335   189929846.1462       -543.758          36.000  
G12  22346744.438   117432960.200         739.177          36.000    22346749.608                         575.258          32.000                                                                  
G24  21742909.271                2      -3633.983          29.000                                                                                                                                  
C16  36150657.963   188245954.9672       -446.331          37.000    36150657.847   145563724.9842       -345.016          37.000  
> 2025 10 27 02 13 44.9990000  0 17                     
G18  21648258.273   113762362.8012      -3355.292          41.000    21648258.410    88645997.511       -2614.748          38.000                                                                  
S29  36547177.694   192056716.6742       -544.415          36.000  
J03  35637134.967   187274410.750        -708.350          36.000    35637139.002   145928127.196        -551.923          33.000  
J07  36142554.830                2       -544.464          33.000    36142556.342   147997725.141        -424.214          36.000  
G25  21809974.934   114612197.9992       2098.542          35.000                                                                                                                                  
G23  19797584.533   104037002.7102        -61.601          36.000    19797586.899                         -48.379          30.000                                                                  
C08  36037347.484                         233.385          34.000    36037342.458                2        181.470          32.000  
C09  36892840.386   192110700.4101       -101.583          36.000    36892838.998   148552164.5801        -78.126          34.000  
C06  35737645.538   186095297.6621       -251.685          37.000    35737639.498   143900666.1501       -194.547          36.000  
C37  23671262.792   123262487.267        2380.341          39.000    23671054.241                3       1811.957          11.000  
C23  21745723.406   113235691.512          97.813          43.000                                                                  
R21  22249032.112   119059078.7302      -4151.736          41.000    22249028.392    92601476.494       -3228.735          34.000  
R09  19394933.794   103567948.7852        858.115          42.000    19394932.624    80552775.193         667.507          40.000  
S37  36142552.127   189930390.3022       -544.239          37.000  
G12  22346606.186   117432221.645         738.378          36.000    22346608.150                         575.809          31.000                                                                  
G24  21743600.858                3      -3635.257          28.000                                                                                                                                  
C16  36150742.727   188246401.1861       -447.241          34.000    36150743.399   145564070.385        -346.045          35.000  
> 2025 10 27 02 13 45.9990000  0 17                     
G18  21648896.926   113765718.3262      -3355.575          43.000    21648897.349    88648612.253       -2614.961          38.000                                                                  
S29  36547281.173   192057260.790        -544.286          38.000  
J03  35637270.311   187275119.126        -708.337          38.000    35637273.519   145928679.199        -552.209          33.000  
J07  36142659.461   189930955.2393       -544.196          33.000    36142660.379   147998149.072        -423.862          38.000  
G25  21809575.129   114610099.4712       2099.002          35.000                                                                                                                                  
G23  19797595.932   104037064.9192        -63.226          29.000    19797600.173                         -48.840          30.000                                                                  
C08  36037303.141                         234.146          30.000    36037298.082                         179.384          30.000  
C09  36892859.934   192110802.680        -102.174          39.000    36892858.428   148552243.652         -79.038          36.000  
C06  35737694.339   186095549.379        -251.575          39.000    35737688.557   143900860.762        -194.880          37.000  
C37  23670805.676   123260107.769        2379.388          41.000                                                                  
C23  21745705.538   113235594.213          96.938          40.000                                                                  
R21  22249806.831   119063230.1302      -4151.551          41.000    22249803.711    92604705.326       -3228.387          34.000  
R09  19394772.529   103567091.2272        856.794          39.000    19394771.719    80552108.139         666.299          38.000  
S37  36142655.763   189930934.4522       -544.492          36.000  
G12  22346467.046   117431483.390         738.113          36.000    22346469.661                         575.224          31.000                                                                  
G24  21744290.137                2      -3635.865          28.000                                                                                                                                  
C16  36150829.131   188246847.977        -446.910          41.000    36150829.253   145564415.867        -346.376          35.000  
> 2025 10 27 02 13 46.9990000  0 17                     
G18  21649535.991   113769074.2752      -3356.351          43.000    21649536.259    88651227.232       -2614.750          37.000                                                                  
S29  36547384.458   192057805.059        -544.081          37.000  
J03  35637405.151   187275827.765        -708.984          38.000    35637407.936   145929231.334        -552.612          33.000  
J07  36142762.712   189931499.5292       -543.984          33.000    36142764.076   147998573.254        -424.779          38.000  
G25  21809176.107   114608001.5122       2096.951          37.000                                                                                                                                  
G23  19797608.395                2        -63.551          33.000    19797610.439                         -49.509          29.000                                                                  
C08  36037258.786                         233.590          28.000    36037253.709                         180.247          30.000  
C09  36892880.538   192110905.229        -102.606          39.000    36892878.040   148552322.926         -80.097          40.000  
C06  35737742.338   186095801.340        -252.820          39.000    35737736.674   143901055.616        -195.456          40.000  
C37  23670348.731   123257728.606        2379.279          41.000                                                                  
C23  21745687.505   113235497.630          96.156          42.000                                                                  
R21  22250582.365   119067381.732       -4151.837          40.000    22250580.008    92607934.361       -3228.793          34.000  
R09  19394612.148   103566234.642         855.628          38.000    19394611.365    80551441.958         665.345          38.000  
S37  36142759.343   189931478.2531       -544.309          37.000  
G12  22346326.920   117430745.876         737.078          37.000    22346329.541                         573.302          31.000                                                                  
G24  21744980.958                2      -3635.890          28.000                                                                                                                                  
C16  36150915.142   188247295.007        -447.155          39.000    36150915.515   145564761.581        -346.117          38.000  
> 2025 10 27 02 13 47.9990000  0 17                     
G18  21650174.874   113772431.4662      -3356.993          36.000    21650175.134    88653843.144       -2616.592          35.000                                                                  
S29  36547488.013   192058350.225        -544.012          35.000  
J03  35637540.338   187276537.386        -709.369          39.000    35637543.065   145929784.156        -552.789          33.000  
J07  36142866.392                2       -545.887          32.000    36142868.010   147998998.033        -424.519          40.000  
G25  21808777.280   114605904.5622       2096.774          37.000                                                                                                                                  
G23  19797620.713                3        -64.202          27.000    19797621.605                3        -50.796          28.000                                                                  
C08  36037214.116                         232.333          29.000    36037208.106                         179.240          28.000  
C09  36892900.412   192111008.723        -103.382          34.000    36892897.978   148552402.959         -79.756          36.000  
C06  35737790.914   186096054.191        -251.628          33.000    35737785.381   143901251.142        -194.696          32.000  
C37  23669892.122   123255350.515        2378.137          42.000                                                                  
C23  21745669.219   113235402.366          94.958          36.000                                                                  
R21  22251358.281   119071534.335       -4152.439          40.000    22251355.688    92611164.080       -3228.876          34.000  
R09  19394451.994   103565379.618         855.461          35.000    19394451.222    80550777.054         664.754          38.000  
S37  36142863.103   189932023.446        -544.162          34.000  
G12  22346186.767   117430009.723         736.570          35.000    22346189.094                         573.183          31.000                                                                  
G24  21745672.609                2      -3637.579          30.000                                                                                                                                  
C16  36151001.196   188247742.986        -448.027          33.000    36151001.447                        -346.405          32.000  
> 2025 10 27 02 13 48.9990000  0 17                     
G18  21650813.764   113775788.0661      -3356.290          42.000    21650814.073    88656459.144       -2615.941          32.000                                                                  
S29  36547591.508   192058894.866        -543.090          38.000  
J03  35637675.591   187277246.615        -708.557          42.000    35637678.317   145930337.022        -551.715          39.000  
J07  36142970.216                        -543.329          35.000    36142971.511   147999422.169        -423.761          38.000  
G25  21808378.410   114603806.9331       2098.229          42.000                                                                                                                                  
G23  19797634.297                2        -62.352          37.000    19797632.721                         -49.296          35.000                                                                  
C08  36037168.657                3        234.963          29.000    36037164.235                         181.748          27.000  
C09  36892920.207                        -102.123          35.000    36892917.774                         -79.783          37.000  
C06  35737839.259                        -250.504          34.000    35737833.916   143901446.167        -193.644          38.000  
C37  23669435.522   123252972.343        2379.108          40.000                                                                  
C23  21745650.810   113235306.678          96.553          45.000                                                                  
R21  22252134.227   119075687.192       -4152.588          44.000    22252131.855                       -3229.053          31.000  
R09  19394291.874   103564524.709         855.739          45.000    19394290.985    80550112.040         666.232          40.000  
S37  36142966.638   189932567.667        -543.085          39.000  
G12  22346046.633   117429273.407         736.816          41.000    22346049.117                         573.648          32.000                                                                  
G24  21746365.298                3      -3635.496          36.000                                                                                                                                  
C16  36151087.057   188248190.099        -446.112          36.000    36151087.347   145565453.738        -344.401          37.000  
> 2025 10 27 02 13 49.9990000  0 19                     
G18  21651452.493   113779144.334       -3355.406          47.000    21651452.719    88659074.471       -2615.134          41.000                                                                  
S29  36547694.768   192059438.059        -542.288          45.000  
J03  35637810.589   187277955.096        -708.203          43.000    35637813.192   145930888.998        -551.630          41.000  
J07  36143073.681   189933132.239        -542.863          40.000    36143074.810   147999845.400        -422.808          43.000  
G25  21807979.417   114601709.241        2097.740          44.000                                                                                                                                  
G23  19797645.544   104037332.6053        -62.799          48.000    19797642.879    81068044.9181        -47.835          43.000                                                                  
C08  36037123.060   187654758.4753        235.868          44.000    36037118.805   145106532.447         182.518          44.000  
C09  36892939.726   192111213.701        -101.348          40.000    36892937.403   148552561.484         -78.062          45.000  
C06  35737887.440   186096557.514        -249.858          44.000    35737882.232   143901640.349        -193.826          44.000  
C37  23668978.606   123250593.463        2379.901          45.000                                                                  
C23  21745632.208   113235210.486          96.366          49.000                                                                  
R21  22252909.898   119079838.953       -4151.000          43.000    22252907.933                       -3229.139          30.000  
R06  20972741.756                2       -598.842          36.000                                                                  
R09  19394131.507   103563669.474         855.639          48.000    19394130.714    80549446.873         665.230          41.000  
S37  36143070.074   189933110.958        -542.615          44.000  
G12  22345906.526   117428536.727         737.224          46.000    22345908.857    91502753.066         573.894          35.000                                                                  
G24  21747055.915   114281555.9443      -3634.445          43.000                                                                                                                                  
C16  36151172.786   188248636.266        -444.689          45.000    36151173.065   145565798.721        -343.628          43.000  
R07                                                                  21241778.354                3        544.445          29.000  
> 2025 10 27 02 13 50.9990000  0 20                     
G18  21652091.669   113782503.491       -3362.474          43.000    21652091.955    88661691.906       -2620.280          37.000                                                                  
S29  36547798.556   192059983.924        -549.348          44.000  
J03  35637946.163   187278666.534        -714.178          46.000    35637948.602   145931443.365        -556.586          41.000  
J07  36143177.851   189933679.081        -550.366          41.000    36143178.911   148000271.582        -428.730          45.000  
G25  21807581.102   114599615.058        2091.367          45.000                                                                                                                                  
G23  19797658.912   104037399.8682        -71.000          47.000    19797657.724    81068097.391         -55.159          42.000                                                                  
C08  36037079.835   187654527.1131        226.859          42.000    36037074.491   145106354.008         175.398          44.000  
C09  36892959.839   192111318.549        -108.085          44.000    36892957.587   148552642.528         -83.954          41.000  
C06  35737936.319   186096811.853        -258.027          45.000    35737931.088   143901837.010        -199.409          43.000  
C37  23668522.302   123248217.086        2373.462          45.000                                                                  
C23  21745614.411   113235118.615          88.533          50.000                                                                  
R21  22253686.002   119083992.683       -4157.630          48.000    22253684.280                       -3233.850          35.000  
R06  20972857.420   111915171.1782       -607.506          35.000                                                                  
R10  21627591.730                3       3524.183          44.000                                                                  
R09  19393972.274   103562818.921         846.910          53.000    19393971.316    80548785.330         658.609          43.000  
S37  36143174.096   189933657.782        -550.031          44.000  
G12  22345767.041   117427804.443         728.872          46.000    22345769.243    91502182.439         567.888          39.000                                                                  
G24  21747748.928   114285195.3692      -3643.788          40.000                                                                                                                                  
C16  36151259.104   188249085.758        -453.379          46.000    36151259.500   145566146.344        -350.265          45.000  
R07                                                                  21241648.513                3        544.445          21.000  
> 2025 10 27 02 13 51.9990000  0 19                     
G18  21652730.862   113785862.192       -3357.374          44.000    21652731.116    88664309.117       -2616.120          40.000                                                                  
S29  36547902.067   192060528.810        -542.920          42.000  
J03  35638081.662   187279377.526        -710.034          45.000    35638084.027   145931997.446        -552.875          41.000  
J07  36143281.785   189934225.091        -544.709          38.000    36143282.830   148000697.093        -424.307          43.000  
G25  21807182.536   114597520.610        2095.293          45.000                                                                                                                                  
G23  19797671.528   104037466.6482        -66.394          45.000    19797670.094    81068149.447         -51.207          42.000                                                                  
C08  36037035.130   187654295.273         232.504          42.000    36037029.887   145106174.628         180.142          42.000  
C09  36892979.789   192111422.565        -102.288          42.000    36892977.579   148552722.956         -79.537          43.000  
C06  35737985.012   186097065.344        -252.209          42.000    35737979.761   143902033.055        -195.041          42.000  
C37  23668065.829   123245840.286        2378.455          45.000                                                                  
C23  21745596.618   113235026.472          92.927          49.000                                                                  
C39  35620720.925   185486439.9941       -602.179          45.000                                                                  
R21  22254461.867                       -4152.543          41.000    22254460.523                       -3228.593          35.000  
R10  21626932.179                2       3530.103          38.000                                                                  
R09  19393812.902   103561968.328         851.517          48.000    19393811.860    80548123.768         661.897          41.000  
S37  36143278.043   189934203.815        -544.762          40.000  
G12  22345627.619   117427071.897         732.775          45.000    22345629.648    91501611.584         570.686          41.000                                                                  
G24  21748441.201   114288833.9072      -3637.468          42.000                                                                                                                                  
C16  36151345.461   188249534.454        -447.465          45.000    36151345.742   145566493.281        -345.526          42.000  
> 2025 10 27 02 13 52.9990000  0 19                     
G18  21653369.645   113789219.350       -3355.734          47.000    21653370.070    88666925.100       -2615.597          45.000                                                                  
S29  36548005.419   192061071.788        -542.017          43.000  
J03  35638216.831   187280087.261        -709.241          46.000    35638219.310   145932550.512        -552.185          45.000  
J07  36143385.557   189934770.288        -542.867          43.000    36143386.549   148001121.914        -423.704          45.000  
G25  21806784.052   114595425.544        2096.509          46.000                                                                                                                                  
G23  19797684.105   104037533.6382        -65.209          45.000    19797683.074    81068201.628         -50.890          45.000                                                                  
C08  36036990.127   187654063.256         233.790          43.000    36036985.414   145105995.271         180.974          45.000  
C09  36892999.482   192111524.852        -100.810          46.000    36892997.260   148552802.131         -77.947          43.000  
C06  35738033.543   186097317.612        -251.265          44.000    35738028.292   143902228.100        -193.656          45.000  
C37  23667609.124   123243461.834        2378.961          48.000                                                                  
C23  21745578.932   113234934.288          93.749          50.000                                                                  
C39  35620836.507   185487042.880        -601.532          50.000                                                                  
R21  22255237.426   119092296.312       -4149.336          50.000    22255236.228    92627312.455       -3228.679          41.000  
R10  21626272.326                2       3530.556          44.000                                                                  
R09  19393653.785   103561118.128         851.861          53.000    19393652.544    80547462.520         662.024          43.000  
S37  36143381.842   189934749.026        -543.056          46.000  
G12  22345488.344   117426339.991         732.492          46.000    22345490.213    91501041.228         571.139          38.000                                                                  
G24  21749133.717   114292473.0342      -3636.117          39.000                                                                                                                                  
C16  36151431.337   188249982.080        -446.356          48.000    36151431.784   145566839.440        -344.927          47.000  
> 2025 10 27 02 13 53.9990000  0 21                     
G18  21654008.332   113792575.635       -3356.433          42.000    21654008.666    88669540.449       -2615.366          42.000                                                                  
S29  36548108.589   192061614.275        -541.658          41.000  
J03  35638351.917   187280795.944        -708.392          44.000    35638354.321   145933102.758        -552.594          44.000  
J07  36143489.236   189935314.750        -543.451          38.000    36143490.085   148001546.170        -424.712          44.000  
G25  21806385.361   114593329.676        2095.435          44.000                                                                                                                                  
G23  19797696.446   104037601.0602        -68.085          46.000    19797694.693    81068254.127         -52.814          45.000                                                                  
C08  36036946.759   187653831.426         231.622          43.000    36036940.978   145105816.025         178.744          43.000  
C09  36893019.317   192111626.587        -101.115          43.000    36893016.895   148552880.800         -78.581          47.000  
C06  35738081.852   186097569.553        -251.703          45.000    35738076.689   143902422.914        -194.597          44.000  
C37  23667152.183   123241082.388        2380.457          45.000                                                                  
C23  21745561.455   113234842.152          91.539          50.000                                                                  
C39  35620952.126   185487645.674        -602.460          44.000                                                                  
R21  22256012.699   119096445.804       -4149.205          46.000    22256011.679    92630539.797       -3227.242          35.000  
R06  20973197.325   111916999.0573       -605.281          34.000                                                                  
R07  21241244.738                3        699.145          28.000                                                                  
R10  21625610.257   115276656.1403       3531.269          43.000                                                                  
R09  19393494.691   103560268.104         849.260          51.000    19393493.333    80546801.345         660.539          42.000  
S37  36143485.511   189935293.514        -543.980          44.000  
G12  22345348.961   117425607.771         730.776          46.000    22345350.725    91500470.684         569.097          40.000                                                                  
G24  21749826.465   114296112.9162      -3641.088          39.000                                                                                                                                  
C16  36151517.279   188250429.499        -447.257          48.000    36151517.732   145567185.314        -345.765          42.000  
> 2025 10 27 02 13 54.9990000  0 21                     
G18  21654646.923   113795931.408       -3356.112          42.000    21654647.215    88672155.277       -2615.429          41.000                                                                  
S29  36548211.575   192062155.810        -541.597          41.000  
J03  35638486.717   187281503.829        -708.466          43.000    35638489.089   145933654.271        -551.367          40.000  
J07  36143592.764   189935858.444        -544.055          40.000    36143593.590   148001969.833        -423.782          42.000  
G25  21805986.550   114591233.179        2095.952          45.000                                                                                                                                  
G23  19797708.827   104037668.1411        -68.016          46.000    19797709.061    81068306.794         -52.846          43.000                                                                  
C08  36036901.241   187653599.509         231.149          44.000    36036896.374   145105636.642         179.399          45.000  
C09  36893038.828   192111727.655        -101.283          42.000    36893036.372   148552958.839         -78.324          43.000  
C06  35738130.175   186097820.885        -252.010          45.000    35738125.011   143902617.248        -194.331          41.000  
C37  23666694.989   123238702.160        2379.901          46.000                                                                  
C23  21745543.611   113234750.084          91.444          46.000                                                                  
C39  35621067.768   185488248.128        -602.771          45.000                                                                  
R21  22256787.925   119100594.321       -4147.876          46.000    22256786.948                       -3226.675          30.000  
R06  20973313.877                3       -603.608          36.000                                                                  
R07  21241117.728                2        694.781          33.000                                                                  
R10  21624947.769   115273124.0422       3531.784          44.000                                                                  
R09  19393335.397   103559418.302         849.094          53.000    19393334.159    80546140.399         660.102          41.000  
S37  36143589.136   189935837.172        -543.943          45.000  
G12  22345209.507   117424875.598         732.712          45.000    22345211.341    91499900.255         570.184          40.000                                                                  
G24  21750519.109   114299752.5451      -3640.961          39.000                                                                                                                                  
C16  36151603.249   188250876.363        -446.970          47.000    36151603.604   145567530.917        -346.189          36.000  
> 2025 10 27 02 13 55.9990000  0 21                     
G18  21655285.454   113799286.782       -3355.306          44.000    21655285.722    88674769.877       -2614.822          41.000                                                                  
S29  36548314.586   192062696.979        -540.775          42.000  
J03  35638621.405   187282211.182        -707.147          44.000    35638623.679   145934205.492        -550.665          42.000  
J07  36143696.259   189936401.865        -543.187          41.000    36143696.999   148002393.239        -423.661          41.000  
G25  21805587.674   114589136.592        2095.490          43.000                                                                                                                                  
G23  19797721.932   104037736.317         -68.142          46.000    19797721.869    81068359.910         -53.025          41.000                                                                  
C08  36036856.706   187653367.801         232.000          43.000    36036851.866   145105457.502         179.247          44.000  
C09  36893058.015   192111828.365        -100.259          42.000    36893055.808   148553036.776         -77.699          43.000  
C06  35738178.497   186098072.096        -251.022          45.000    35738173.356   143902811.539        -194.360          42.000  
C37  23666238.208   123236321.541        2380.420          46.000                                                                  
C23  21745525.891   113234658.305          91.287          47.000                                                                  
C39  35621183.343   185488850.551        -602.130          44.000                                                                  
R21  22257562.932   119104742.337       -4146.896          46.000    22257562.107                       -3226.883          31.000  
R06  20973425.040                2       -603.144          33.000                                                                  
R07  21240988.084                3        694.917          33.000                                                                  
R10  21624285.379   115269591.6592       3532.480          43.000                                                                  
R09  19393176.404   103558569.093         848.897          52.000    19393175.069    80545479.891         660.558          39.000  
S37  36143692.614   189936380.593        -543.431          44.000  
G12  22345070.121   117424143.886         731.741          44.000    22345071.882    91499330.042         569.808          38.000                                                                  
G24  21751212.022   114303393.384       -3641.229          39.000                                                                                                                                  
C16  36151689.187   188251323.199        -446.544          47.000    36151689.432   145567876.452        -345.425          39.000  
> 2025 10 27 02 13 56.9990000  0 21                     
G18  21655924.082   113802643.203       -3355.805          42.000    21655924.521    88677385.346       -2615.398          40.000                                                                  
S29  36548417.603   192063238.893        -540.994          39.000  
J03  35638756.220   187282919.388        -708.057          45.000    35638758.563   145934757.341        -551.471          42.000  
J07  36143799.821   189936945.998        -542.649          38.000    36143800.550   148002817.230        -423.755          41.000  
G25  21805188.844   114587040.823        2096.627          43.000                                                                                                                                  
G23  19797735.159   104037805.846         -69.746          47.000    19797735.100    81068414.035         -53.755          42.000                                                                  
C08  36036812.387   187653137.053         230.880          44.000    36036807.517   145105279.107         178.501          43.000  
C09  36893077.410   192111929.988        -101.257          41.000    36893075.462   148553115.376         -78.970          43.000  
C06  35738226.879   186098324.243        -252.072          44.000    35738221.818   143903006.487        -194.735          42.000  
C37  23665781.368   123233941.853        2380.200          47.000                                                                  
C23  21745508.461   113234567.818          90.919          49.000                                                                  
C39  35621299.277   185489453.961        -603.259          44.000                                                                  
R21  22258338.130   119108891.155       -4149.181          49.000    22258337.420                       -3227.183          32.000  
R06  20973537.871                        -603.640          33.000                                                                  
R10  21623623.141                        3530.555          44.000                                                                  
R09  19393017.581   103557721.445         847.603          51.000    19393016.351    80544820.600         659.297          40.000  
S37  36143796.236   189936924.753        -543.673          42.000  
G12  22344931.033   117423413.370         730.869          46.000    22344932.751    91498760.757         569.982          38.000                                                                  
G24  21751905.022                       -3641.378          37.000                                                                                                                                  
C16  36151775.242   188251771.006        -447.523          47.000    36151775.396   145568222.679        -345.884          39.000  
R16  21356470.179   114082440.907       -2990.358          48.000    21356470.397    88730779.307       -2326.014          37.000  
> 2025 10 27 02 13 57.9990000  0 22                     
G18  21656562.651   113805999.751       -3356.882          45.000    21656563.382    88680000.786       -2615.808          40.000                                                                  
S29  36548520.686   192063780.552        -542.538          39.000  
J03  35638890.951   187283627.281        -707.642          45.000    35638893.408   145935308.923        -551.892          41.000  
J07  36143903.351   189937489.768        -543.590          36.000    36143903.957   148003240.995        -424.087          44.000  
G25  21804790.091   114584945.057        2095.604          42.000                                                                                                                                  
G23  19797748.546   104037875.544         -70.221          46.000    19797748.182    81068468.361         -54.452          44.000                                                                  
C08  36036768.296   187652906.135         230.172          44.000    36036763.191   145105100.461         178.497          44.000  
C09  36893096.792   192112031.425        -101.696          41.000    36893094.983   148553193.793         -78.329          43.000  
C06  35738275.349   186098576.225        -252.145          45.000    35738270.228   143903201.350        -195.385          41.000  
C37  23665324.234   123231562.041        2379.993          45.000                                                                  
C23  21745491.270   113234477.604          89.829          50.000                                                                  
C39  35621415.117   185490057.210        -603.760          45.000                                                                  
R21  22259113.346   119113039.531       -4148.150          48.000    22259112.593    92643445.900       -3226.354          38.000  
R06  20973650.854                        -604.432          33.000                                                                  
R07  21240734.266                2        695.438          27.000                                                                  
R10  21622960.810   115262528.545        3530.254          43.000                                                                  
R09  19392858.934   103556874.253         846.269          49.000    19392857.588    80544161.738         658.258          46.000  
S37  36143899.682   189937468.506        -543.995          40.000  
G12  22344791.990   117422682.919         730.351          45.000    22344793.676    91498191.548         568.961          40.000                                                                  
G24  21752598.077                       -3643.940          37.000                                                                                                                                  
C16  36151861.247   188252218.674        -448.402          47.000    36151861.423   145568568.859        -346.918          41.000  
R16  21357030.212   114085431.858       -2990.746          47.000    21357030.300    88733105.591       -2326.743          39.000  
> 2025 10 27 02 13 58.9990000  0 22                     
G18  21657201.235   113809356.069       -3356.523          40.000    21657202.189    88682616.007       -2615.840          42.000                                                                  
S29  36548623.570   192064321.787        -541.847          42.000  
J03  35639025.706   187284334.663        -707.080          45.000    35639028.131   145935860.173        -551.428          43.000  
J07  36144006.776   189938033.114        -542.808          37.000    36144007.409   148003664.344        -423.677          43.000  
G25  21804391.252   114582848.815        2096.980          43.000                                                                                                                                  
G23  19797761.894   104037945.395         -69.889          46.000    19797761.412    81068522.815         -54.060          46.000                                                                  
C08  36036723.914   187652674.878         231.770          43.000    36036718.765   145104921.665         179.639          43.000  
C09  36893116.251   192112132.618        -101.676          43.000    36893114.545   148553272.010         -78.517          41.000  
C06  35738323.660   186098828.030        -252.246          44.000    35738318.570   143903395.998        -195.315          41.000  
C37  23664867.355   123229181.863        2379.828          46.000                                                                  
C23  21745473.942   113234387.378          90.279          48.000                                                                  
C39  35621530.759   185490660.216        -603.088          45.000                                                                  
R21  22259888.585   119117187.744       -4149.160          50.000    22259887.837    92646672.322       -3226.455          39.000  
R06  20973763.155                        -603.716          32.000                                                                  
R07  21240605.002                3        689.788          33.000                                                                  
R10  21622298.370   115258996.458        3531.930          43.000                                                                  
R09  19392700.305   103556027.444         846.917          51.000    19392698.980    80543503.014         658.986          43.000  
S37  36144003.181   189938011.854        -543.011          43.000  
G12  22344652.846   117421952.323         731.362          46.000    22344654.602    91497622.309         569.998          38.000                                                                  
G24  21753291.088   114314319.123       -3641.745          41.000                                                                                                                                  
C16  36151947.177   188252666.095        -448.007          46.000    36151947.378   145568914.802        -346.210          43.000  
R16  21357590.271   114088423.280       -2990.525          48.000    21357590.324    88735432.247       -2326.260          41.000  
> 2025 10 27 02 13 59.9990000  0 22                     
G18  21657840.118   113812712.754       -3355.984          45.000    21657841.067    88685231.604       -2616.339          39.000                                                                  
S29  36548726.437   192064863.357        -540.962          45.000  
J03  35639160.293   187285041.739        -706.525          45.000    35639162.745   145936411.133        -550.159          43.000  
J07  36144110.182   189938575.941        -541.487          39.000    36144110.612   148004087.327        -422.271          42.000  
G25  21803992.363   114580752.217        2098.124          44.000                                                                                                                                  
G23  19797775.099   104038015.369         -69.603          46.000    19797774.675    81068577.399         -54.133          44.000                                                                  
C08  36036679.350   187652443.424         232.272          42.000    36036674.263   145104742.740         178.958          42.000  
C09  36893135.687   192112234.149        -100.841          43.000    36893134.038   148553350.518         -77.860          41.000  
C06  35738372.065   186099080.002        -251.591          45.000    35738366.956   143903590.902        -194.341          40.000  
C37  23664410.300   123226801.899        2380.457          46.000                                                                  
C23  21745456.665   113234297.242          90.630          49.000                                                                  
C39  35621646.791   185491263.438        -602.356          47.000                                                                  
R21  22260663.904   119121336.145       -4147.126          42.000    22260663.026                       -3223.860          31.000  
R06  20973876.020                        -601.778          33.000                                                                  
R07  21240478.104                3        690.532          29.000                                                                  
R10  21621636.079   115255464.421        3532.458          44.000                                                                  
R09  19392541.674   103555180.670         848.583          48.000    19392540.386    80542844.504         659.996          43.000  
S37  36144106.547   189938554.696        -542.039          43.000  
G12  22344513.596   117421221.189         731.678          45.000    22344515.482    91497052.620         570.384          40.000                                                                  
G24  21753983.894   114317960.506       -3640.693          41.000                                                                                                                                  
C16  36152033.098   188253113.660        -447.042          45.000    36152033.317   145569260.948        -345.590          43.000  
R16  21358150.163   114091414.567       -2989.970          46.000    21358150.261    88737758.815       -2326.457          40.000  
> 2025 10 27 02 14 00.9990000  0 21                     
G18  21658478.591   113816068.680       -3354.823          45.000    21658479.656    88687846.595       -2613.784          38.000                                                                  
S29  36548829.271   192065404.176        -539.196          43.000  
J03  35639294.719   187285747.844        -703.906          44.000    35639297.175   145936961.290        -548.163          39.000  
J07  36144213.510   189939117.861        -539.363          39.000    36144213.716   148004509.584        -421.072          41.000  
G25  21803593.136   114578654.726        2099.467          45.000                                                                                                                                  
G23  19797788.374   104038085.076         -68.153          47.000    19797787.804    81068631.735         -53.931          43.000                                                                  
C08  36036635.042   187652211.392         233.431          44.000    36036629.671   145104563.212         180.843          40.000  
C09  36893155.078   192112334.977         -99.427          42.000    36893153.401   148553428.470         -76.540          37.000  
C06  35738420.366   186099331.351        -249.099          44.000    35738415.178   143903785.160        -191.660          36.000  
C37  23663953.041   123224421.130        2382.098          45.000                                                                  
C23  21745439.238   113234206.646          91.882          49.000                                                                  
C39  35621762.635   185491866.031        -600.909          46.000                                                                  
R21  22261438.957   119125483.750       -4145.883          40.000    22261438.889                3      -3224.158          31.000  
R07  21240346.155                2        694.587          32.000                                                                  
R10  21620973.510   115251931.481        3535.557          40.000                                                                  
R09  19392383.145   103554333.863         849.015          50.000    19392381.737    80542185.868         659.018          43.000  
S37  36144209.629   189939096.597        -539.598          43.000  
G12  22344374.322   117420489.484         732.867          46.000    22344376.115    91496482.436         571.021          35.000                                                                  
G24  21754676.707   114321601.524       -3640.693          42.000                                                                                                                                  
C16  36152118.957   188253560.604        -444.149          45.000    36152119.232   145569606.558        -344.547          40.000  
R16  21358710.205   114094405.956       -2991.500          47.000    21358710.266    88740085.459       -2328.130          33.000  
> 2025 10 27 02 14 01.9990000  0 22                     
G18  21659117.329   113819424.933       -3356.903          41.000    21659118.398    88690461.854       -2615.958          40.000                                                                  
S29  36548932.118   192065945.185        -541.639          45.000  
J03  35639429.063   187286453.458        -705.505          43.000    35639431.465   145937511.147        -550.281          38.000  
J07  36144316.583   189939659.277        -542.716          39.000    36144316.714   148004931.450        -421.967          43.000  
G25  21803193.949   114576556.778        2096.963          44.000                                                                                                                                  
G23  19797801.704   104038155.004         -70.395          47.000    19797801.132    81068686.193         -55.530          43.000                                                                  
C08  36036590.576   187651979.126         231.656          45.000    36036585.114   145104383.660         179.598          40.000  
C09  36893174.573   192112435.985        -101.917          43.000    36893172.803   148553506.590         -78.475          38.000  
C06  35738468.720   186099582.867        -252.303          43.000    35738463.463   143903979.639        -194.928          41.000  
C37  23663495.963   123222040.411        2381.030          42.000                                                                  
C23  21745421.847   113234116.123          89.477          50.000                                                                  
C39  35621878.453   185492468.720        -603.680          46.000                                                                  
R21  22262214.234                       -4147.931          45.000    22262213.822                2      -3225.189          34.000  
R06  20974102.216   111921827.8071       -601.896          37.000                                                                  
R07  21240217.970                2        696.196          35.000    21240224.948                3        537.960          29.000  
R10  21620310.805                        3531.679          41.000                                                                  
R09  19392224.692   103553487.224         845.408          51.000    19392223.091    80541527.368         657.585          42.000  
S37  36144312.726   189939638.003        -542.713          43.000  
G12  22344235.039   117419757.284         731.973          46.000    22344236.737    91495911.885         570.536          40.000                                                                  
G24  21755369.564   114325242.209       -3640.341          39.000                                                                                                                                  
C16  36152204.829   188254007.701        -447.682          44.000    36152205.114   145569952.253        -345.964          41.000  
R16  21359270.210   114097397.394       -2991.309          44.000    21359270.382    88742412.075       -2326.525          36.000  
> 2025 10 27 02 14 02.9990000  0 22                     
G18  21659755.937   113822781.360       -3356.414          45.000    21659756.975    88693077.174       -2614.250          38.000                                                                  
S29  36549035.016   192066486.260        -540.827          43.000  
J03  35639563.310   187287158.973        -706.390          45.000    35639565.714   145938060.881        -550.287          43.000  
J07  36144419.643   189940200.567        -541.176          39.000    36144419.639   148005353.200        -421.587          45.000  
G25  21802794.760   114574458.671        2098.187          43.000                                                                                                                                  
G23  19797815.189   104038225.607         -70.945          45.000    19797814.402    81068741.135         -54.113          46.000                                                                  
C08  36036546.015   187651747.190         232.013          44.000    36036540.634   145104204.281         179.540          46.000  
C09  36893194.083   192112537.131        -100.903          43.000    36893192.290   148553584.846         -78.009          43.000  
C06  35738517.185   186099834.662        -251.405          46.000    35738511.835   143904174.420        -194.579          43.000  
C37  23663038.898   123219659.734        2380.145          46.000                                                                  
C23  21745404.657   113234026.089          89.510          48.000    21745507.393                3         49.039          10.000  
C39  35621994.104   185493071.769        -603.284          46.000                                                                  
R21  22262989.378   119133779.203       -4147.717          47.000    22262990.201                3      -3252.311          26.000  
R06  20974215.331   111922430.810        -603.603          36.000                                                                  
R07  21240088.009                3        697.923          26.000                                                                  
R10  21619648.128                3       3534.279          40.000                                                                  
R09  19392066.130   103552641.251         845.798          51.000    19392064.503    80540869.354         657.745          44.000  
S37  36144415.630   189940179.269        -540.905          43.000  
G12  22344095.701   117419025.262         731.399          47.000    22344097.500    91495341.421         570.803          42.000                                                                  
G24  21756062.465   114328883.566       -3642.513          41.000                                                                                                                                  
C16  36152290.652   188254455.110        -447.122          45.000    36152291.110   145570298.188        -345.568          47.000  
R16  21359830.469   114100389.755       -2993.096          42.000    21359830.692    88744739.559       -2329.695          33.000  
> 2025 10 27 02 14 03.9990000  0 22                     
G18  21660394.911                       -3357.597          45.000    21660395.910    88695693.488       -2615.933          39.000                                                                  
S29  36549138.008   192067028.065        -540.672          43.000  
J03  35639697.616   187287865.239        -704.663          42.000    35639700.193   145938611.328        -550.598          43.000  
J07  36144522.852   189940742.521        -540.165          39.000    36144522.787   148005775.530        -421.133          43.000  
G25  21802395.824   114572361.631        2098.656          44.000                                                                                                                                  
G23  19797828.921   104038297.282         -70.702          45.000    19797828.026    81068797.019         -54.849          44.000                                                                  
C08  36036501.623   187651515.861         232.816          44.000    36036496.225   145104025.463         180.129          43.000  
C09  36893213.663   192112639.250        -102.127          44.000    36893211.858   148553663.733         -78.199          40.000  
C06  35738565.594   186100087.280        -251.824          45.000    35738560.343   143904369.819        -194.714          39.000  
C37  23662581.969                        2379.071          47.000                                                                  
C23  21745387.466   113233937.206          90.064          48.000                                                                  
C39  35622110.129   185493675.549        -602.734          46.000                                                                  
R21  22263764.600   119137927.874       -4148.384          51.000    22263766.469                2      -3225.440          38.000  
R06  20974328.525   111923034.312        -601.507          38.000                                                                  
R07  21239958.488                2        689.886          31.000    21239964.837                2        540.801          29.000  
R10  21618985.701                3       3528.808          45.000                                                                  
R09  19391908.116   103551796.764         845.151          52.000    19391906.294    80540212.516         657.560          44.000  
S37  36144518.805   189940721.268        -540.830          43.000  
G12  22343956.579   117418294.405         731.703          46.000    22343958.373    91494772.007         570.101          41.000                                                                  
G24  21756755.614   114332525.539       -3640.679          42.000                                                                                                                                  
C16  36152376.582   188254903.297        -446.704          44.000    36152377.183   145570644.758        -346.058          43.000  
R16  21360391.090                       -2994.438          39.000    21360391.109                       -2326.810          32.000  
> 2025 10 27 02 14 04.9990000  0 22                     
G18  21661033.722   113829496.048       -3356.862          43.000    21661034.686    88698309.527       -2615.944          37.000                                                                  
S29  36549240.935   192067568.956        -540.933          44.000  
J03  35639831.989   187288571.172        -705.127          42.000    35639834.487   145939161.328        -549.579          41.000  
J07  36144625.850   189941283.813        -541.199          37.000    36144625.761   148006197.409        -422.056          40.000  
G25  21801996.746   114570264.364        2097.988          44.000                                                                                                                                  
G23  19797842.517   104038368.363         -71.423          46.000    19797841.527    81068852.417         -56.011          44.000                                                                  
C08  36036456.924   187651283.484         232.075          43.000    36036451.558   145103845.740         179.097          43.000  
C09  36893233.175   192112740.599        -101.306          40.000    36893231.341   148553742.180         -78.464          40.000  
C06  35738614.195   186100339.143        -251.916          43.000    35738608.691   143904564.513        -195.198          42.000  
C37  23662124.868   123214899.952        2380.902          44.000                                                                  
C23  21745370.217   113233848.099          88.859          47.000                                                                  
C39  35622225.934   185494278.474        -603.644          45.000                                                                  
R21  22264539.750   119142075.875       -4148.501          43.000    22264541.802                2      -3226.041          36.000  
R06  20974441.610   111923636.670        -603.597          35.000                                                                  
R07  21239825.146                2        696.038          32.000                                                                  
R10  21618323.251                2       3530.148          42.000                                                                  
R09  19391750.090   103550952.332         844.329          49.000    19391748.080    80539555.806         656.298          44.000  
S37  36144621.849   189941262.527        -541.268          41.000  
G12  22343817.377   117417563.263         731.788          44.000    22343819.156    91494202.239         570.796          39.000                                                                  
G24  21757448.550   114336166.414       -3640.851          42.000                                                                                                                                  
C16  36152462.511   188255350.691        -447.916          45.000    36152463.039   145570990.667        -346.045          41.000  
R16  21360951.482                       -2992.638          40.000    21360953.271                3      -2328.084          34.000  
> 2025 10 27 02 14 05.9990000  0 22                     
G18  21661672.363   113832852.063       -3356.469          44.000    21661673.288    88700924.517       -2616.407          37.000                                                                  
S29  36549343.564   192068108.424        -540.241          46.000  
J03  35639966.248   187289276.371        -705.939          42.000    35639968.689   145939710.774        -550.049          42.000  
J07  36144728.770   189941824.605        -542.277          38.000    36144728.752   148006618.728        -422.513          43.000  
G25  21801597.713   114568166.877        2096.441          44.000                                                                                                                                  
G23  19797856.145   104038439.900         -73.243          45.000    19797855.163    81068908.191         -57.856          41.000                                                                  
C08  36036412.372   187651051.254         229.663          43.000    36036406.907   145103666.165         179.015          42.000  
C09  36893252.501   192112840.746        -100.746          43.000    36893250.611   148553819.597         -78.112          40.000  
C06  35738662.222   186100590.005        -251.384          44.000    35738656.919   143904758.576        -195.313          40.000  
C37  23661667.529   123212518.697        2380.786          45.000                                                                  
C23  21745353.050   113233759.237          86.500          49.000                                                                  
C39  35622341.476   185494880.778        -603.387          47.000                                                                  
R21  22265314.549   119146222.241       -4146.583          42.000    22265313.491                2      -3224.876          32.000  
R06  20974554.701   111924239.864        -604.292          34.000                                                                  
R07  21239695.593                3        691.672          35.000    21239700.305                2        538.757          30.000  
R10  21617660.361                2       3532.308          40.000                                                                  
R09  19391592.011   103550108.578         841.642          48.000    19391589.976    80538899.480         655.011          45.000  
S37  36144724.802   189941803.318        -542.244          42.000  
G12  22343678.457   117416833.099         728.734          43.000    22343680.084    91493633.352         567.290          40.000                                                                  
G24  21758141.598   114339808.449       -3643.344          39.000                                                                                                                                  
C16  36152548.187   188255797.314        -448.673          44.000    36152548.840   145571335.997        -345.891          44.000  
R16  21361512.184                       -2995.261          37.000    21361512.349                3      -2327.419          29.000  
> 2025 10 27 02 14 06.9990000  0 22                     
G18  21662310.971   113836208.147       -3356.833          46.000    21662311.962    88703539.650       -2615.444          41.000                                                                  
S29  36549446.039   192068647.356        -538.750          43.000  
J03  35640100.485   187289981.546        -704.865          44.000    35640102.681   145940260.200        -548.071          41.000  
J07  36144831.767   189942365.476        -540.024          40.000    36144831.632   148007040.197        -420.535          41.000  
G25  21801198.713   114566069.817        2097.688          41.000                                                                                                                                  
G23  19797869.881   104038512.258         -71.688          45.000    19797868.887    81068964.525         -55.450          43.000                                                                  
C08  36036367.876   187650819.289         233.978          41.000    36036362.357   145103486.851         179.845          42.000  
C09  36893271.690   192112940.614         -99.609          43.000    36893269.774   148553896.777         -76.613          41.000  
C06  35738710.384   186100840.790        -250.589          45.000    35738705.149   143904952.518        -193.334          41.000  
C37  23661210.196   123210137.222        2381.738          44.000                                                                  
C23  21745336.192   113233671.169          89.377          48.000                                                                  
C39  35622457.086   185495483.115        -601.056          46.000                                                                  
R21  22266089.253                3      -4143.950          43.000    22266089.770                       -3225.417          36.000  
R06  20974667.965   111924843.835        -602.339          33.000                                                                  
R07  21239564.970                2        695.719          29.000    21239567.416                3        542.044          29.000  
R10  21616997.731                        3533.751          39.000                                                                  
R09  19391434.185   103549265.905         843.770          49.000    19391432.116    80538244.109         655.688          46.000  
S37  36144827.799   189942344.213        -539.803          43.000  
G12  22343539.705   117416104.087         728.726          45.000    22343541.342    91493065.214         567.770          40.000                                                                  
G24  21758834.780   114343451.164       -3641.841          40.000                                                                                                                                  
C16  36152634.079   188256243.896        -445.399          45.000    36152634.561   145571681.354        -344.799          42.000  
R16  21362073.098                       -2993.572          37.000    21362073.475                2      -2329.851          30.000  
> 2025 10 27 02 14 07.9990000  0 23                     
G18  21662949.736   113839564.638       -3357.084          45.000    21662950.745    88706155.133       -2614.759          41.000                                                                  
S29  36549548.537   192069186.276        -538.088          44.000  
J03  35640234.844   187290687.370        -705.585          44.000    35640237.130   145940810.237        -549.811          43.000  
J07  36144934.881   189942906.691        -540.096          39.000    36144934.563   148007461.988        -421.964          42.000  
G25  21800799.782   114563973.679        2095.904          44.000    21800803.932                1       1632.870          39.000                                                                  
G23  19797883.772   104038584.887         -72.651          45.000    19797882.735    81069021.203         -57.213          41.000                                                                  
C08  36036323.208   187650587.236         232.203          42.000    36036317.815   145103307.385         179.066          42.000  
C09  36893290.946   192113040.679         -99.613          42.000    36893289.003   148553974.199         -76.666          44.000  
C06  35738758.697   186101091.857        -250.882          43.000    35738753.362   143905146.541        -194.019          46.000  
C37  23660753.160   123207756.435        2380.865          44.000                                                                  
C23  21745319.524   113233583.867          87.112          49.000                                                                  
C39  35622572.795   185496085.574        -602.203          46.000                                                                  
R21  22266864.002   119154486.4383      -4144.612          45.000    22266863.425                       -3223.582          36.000  
R06  20974781.247                        -604.777          33.000                                                                  
R07  21239433.914                3        694.954          32.000    21239437.150                2        541.068          33.000  
R10  21616335.092                3       3532.133          44.000                                                                  
R09  19391276.639   103548424.282         841.321          51.000    19391274.535    80537589.569         653.794          45.000  
S37  36144930.861   189942885.459        -540.776          43.000  
G12  22343401.162   117415375.731         727.940          42.000    22343402.667    91492497.741         566.569          41.000                                                                  
G24  21759527.938   114347093.684       -3641.418          38.000                                                                                                                                  
C16  36152720.005   188256690.625        -446.367          46.000    36152720.366   145572026.861        -345.295          44.000  
R16  21362633.963                       -2996.877          40.000    21362634.228                3      -2329.102          30.000  
E21  26120139.574   137262259.4261       1792.151          40.000                                                                  
> 2025 10 27 02 14 08.9990000  0 23                     
G18  21663588.713   113842922.719       -3359.112          44.000    21663589.884    88708771.868       -2617.302          42.000                                                                  
S29  36549651.311   192069726.243        -540.892          43.000  
J03  35640369.281   187291393.918        -706.854          43.000    35640371.644   145941360.943        -551.178          42.000  
J07  36145037.875   189943448.418        -541.632          41.000    36145037.465   148007884.047        -422.739          42.000  
G25  21800400.937   114561878.335        2094.977          43.000    21800409.028    89269014.4171       1632.371          41.000                                                                  
G23  19797897.745   104038657.985         -73.124          44.000    19797896.771    81069078.188         -57.243          42.000                                                                  
C08  36036278.692   187650354.955         232.090          41.000    36036273.236   145103127.765         179.792          40.000  
C09  36893310.373   192113141.917        -102.198          42.000    36893308.480   148554052.493         -78.954          46.000  
C06  35738807.152   186101343.707        -252.698          45.000    35738801.685   143905341.263        -195.714          43.000  
C37  23660296.241   123205376.993        2377.814          45.000                                                                  
C23  21745302.909   113233497.240          86.350          48.000                                                                  
C39  35622688.651   185496688.446        -603.687          48.000                                                                  
R21  22267639.151   119158635.0483      -4148.547          46.000    22267638.211                       -3227.819          33.000  
R06  20974894.348                        -601.198          29.000                                                                  
R07  21239303.533                2        695.242          36.000                                                                  
R10  21615672.667   115223697.9813       3531.075          41.000                                                                  
R09  19391119.298   103547583.660         839.854          51.000    19391117.043    80536935.649         653.918          40.000  
S37  36145033.908   189943427.153        -541.988          44.000  
G12  22343262.699   117414647.803         728.664          45.000    22343264.007    91491930.406         568.140          36.000                                                                  
G24  21760221.021   114350735.897       -3644.345          32.000                                                                                                                                  
C16  36152806.020   188257138.050        -448.469          44.000    36152806.309   145572372.824        -347.025          44.000  
R16  21363196.417                3      -2995.453          40.000    21363196.908                2      -2328.002          24.000  
E21  26119798.005   137260468.476        1791.246          44.000                                                                  
> 2025 10 27 02 14 09.9990000  0 23                     
G18  21664228.184   113846282.804       -3359.436          39.000    21664229.280    88711390.039       -2617.821          42.000                                                                  
S29  36549754.434   192070267.957        -542.414          42.000  
J03  35640504.058   187292102.166        -707.635          43.000    35640506.367   145941912.763        -551.196          41.000  
J07  36145141.316   189943991.387        -541.586          38.000    36145141.047   148008307.159        -422.488          42.000  
G25  21800002.475   114559784.065        2096.273          41.000    21800007.763    89267382.564        1632.305          40.000                                                                  
G23  19797912.129   104038732.518         -74.363          44.000    19797910.844    81069136.309         -58.544          40.000                                                                  
C08  36036234.310   187650123.575         230.592          42.000    36036227.951                3        177.618          38.000  
C09  36893330.224   192113245.131        -104.051          41.000    36893328.350   148554132.239         -79.021          43.000  
C06  35738855.862   186101597.301        -253.346          45.000    35738850.434   143905537.422        -195.205          42.000  
C37  23659839.436   123202999.324        2379.242          44.000                                                                  
C23  21745286.607   113233412.245          85.520          50.000                                                                  
C39  35622804.834   185497292.940        -604.626          48.000                                                                  
R21  22268414.548   119162784.2042      -4149.301          49.000    22268414.046                       -3227.663          36.000  
R06  20975007.548                        -603.290          34.000                                                                  
R07  21239173.573                3        694.290          37.000    21239176.564                3        538.593          30.000  
R10  21615010.547   115220168.3662       3530.192          43.000                                                                  
R09  19390962.296   103546744.928         838.124          51.000    19390959.973    80536283.314         651.606          40.000  
S37  36145137.339   189943970.143        -542.520          42.000  
G12  22343124.227   117413920.407         727.382          45.000    22343125.636    91491363.630         566.711          40.000                                                                  
G24  21760914.009   114354377.796       -3643.471          38.000                                                                                                                                  
C16  36152892.354   188257587.190        -449.059          45.000    36152892.479   145572720.132        -347.264          45.000  
R16  21363759.406                2      -2996.145          38.000    21363756.402                2      -2331.448          29.000  
E21  26119457.357   137258678.333        1789.740          42.000                                                                  
> 2025 10 27 02 14 10.9990000  0 23                     
G18  21664867.730   113849642.751       -3357.533          45.000    21664868.715    88714008.223       -2616.788          41.000                                                                  
S29  36549857.394   192070809.383        -540.708          41.000  
J03  35640638.803   187292810.127        -705.981          43.000    35640641.087   145942464.329        -550.208          41.000  
J07  36145244.714   189944534.184        -540.936          40.000    36145244.383   148008730.082        -421.801          42.000  
G25  21799603.894   114557689.980        2095.589          41.000    21799609.050    89265750.732        1633.001          36.000                                                                  
G23  19797926.351   104038807.364         -72.635          45.000    19797925.153    81069194.638         -57.612          38.000                                                                  
C08  36036189.940   187649892.008         233.801          43.000    36036183.302   145102777.7853        179.380          38.000  
C09  36893349.811   192113347.855         -99.370          41.000    36893348.171   148554211.734         -78.039          44.000  
C06  35738904.604   186101850.713        -252.032          45.000    35738899.182   143905733.287        -195.714          42.000  
C37  23659383.001   123200621.597        2379.303          47.000                                                                  
C23  21745270.382   113233327.560          86.210          51.000                                                                  
C39  35622920.819   185497897.201        -602.411          48.000                                                                  
R21  22269189.792   119166932.5821      -4148.010          46.000    22269189.403                       -3227.019          30.000  
R06  20975120.657                        -602.570          30.000                                                                  
R07  21239045.728                2        694.277          26.000    21239045.671                2        538.892          24.000  
R10  21614348.270   115216638.1901       3531.727          40.000                                                                  
R09  19390805.282   103545906.695         839.891          52.000    19390803.021    80535631.395         652.604          44.000  
S37  36145240.708   189944512.914        -541.012          44.000  
G12  22342985.915   117413193.550         726.954          43.000    22342987.336    91490797.162         567.679          37.000                                                                  
G24  21761607.116   114358020.105       -3641.302          40.000                                                                                                                                  
C16  36152978.592   188258036.094        -446.410          49.000    36152978.671   145573067.264        -345.856          46.000  
R16  21364320.933                3      -2992.586          32.000    21364318.655                3      -2332.986          29.000  
E21  26119116.093   137256887.988        1792.351          41.000                                                                  
> 2025 10 27 02 14 11.9990000  0 23                     
G18  21665507.289   113853003.151       -3357.340          43.000    21665508.128    88716626.761       -2617.401          40.000                                                                  
S29  36549960.339   192071350.809        -538.664          42.000  
J03  35640773.689   187293518.346        -706.811          45.000    35640775.922   145943016.191        -550.165          43.000  
J07  36145347.979   189945077.131        -540.245          39.000    36145347.437   148009153.116        -421.284          44.000  
G25  21799205.497   114555596.285        2095.296          45.000    21799209.007    89264119.258        1632.477          43.000                                                                  
G23  19797940.723   104038882.901         -74.181          45.000    19797939.608    81069253.336         -57.352          42.000                                                                  
C08  36036145.636   187649660.734         232.050          43.000    36036138.282   145102599.0222        179.502          41.000  
C09  36893369.705   192113451.029        -100.233          41.000    36893368.009   148554291.507         -78.795          43.000  
C06  35738953.380   186102104.448        -250.875          40.000    35738947.939   143905929.485        -195.091          45.000  
C37  23658926.672   123198244.114        2378.729          46.000                                                                  
C23  21745254.210   113233243.573          85.390          49.000                                                                  
C39  35623036.793   185498501.915        -603.082          49.000                                                                  
R21  22269965.120   119171081.483       -4147.740          46.000    22269964.637                       -3225.374          34.000  
R06  20975233.718                        -602.947          31.000                                                                  
R07  21238912.902                2        698.434          26.000                                                                  
R10  21613686.217   115213108.864        3530.703          44.000                                                                  
R09  19390648.467   103545069.539         839.008          51.000    19390646.227    80534980.269         651.950          42.000  
S37  36145344.086   189945055.876        -540.251          43.000  
G12  22342847.633   117412467.153         726.448          47.000    22342849.181    91490231.294         566.403          41.000                                                                  
G24  21762300.243                       -3644.221          33.000                                                                                                                                  
C16  36153064.856                        -446.339          47.000    36153064.975   145573414.677        -345.123          45.000  
R16  21364882.278                3      -2995.658          39.000    21364879.833                2      -2330.995          30.000  
E21  26118775.615   137255097.716        1792.447          39.000                                                                  
> 2025 10 27 02 14 12.9990000  0 23                     
G18  21666146.632                       -3356.554          40.000    21666147.450    88719244.265       -2615.788          44.000                                                                  
S29  36550063.046   192071890.889        -537.054          45.000  
J03  35640908.366   187294225.364        -705.872          44.000    35640910.537   145943567.144        -550.427          44.000  
J07  36145451.208   189945619.268        -540.809          39.000    36145450.696   148009575.582        -419.990          45.000  
G25  21798807.012   114553501.988        2095.928          44.000    21798810.728    89262487.349        1633.632          42.000                                                                  
G23  19797955.236   104038958.715         -73.714          45.000    19797954.058    81069312.505         -56.931          41.000                                                                  
C08  36036101.366   187649429.420         234.557          45.000    36036093.939   145102420.1242        181.936          41.000  
C09  36893389.307   192113552.857         -98.961          44.000    36893387.550   148554370.271         -76.852          44.000  
C06  35739001.905   186102357.095        -250.262          43.000    35738996.463   143906124.938        -193.104          43.000  
C37  23658469.537   123195865.256        2380.780          47.000                                                                  
C23  21745238.221   113233159.575          86.413          50.000                                                                  
C39  35623152.956   185499105.851        -601.843          47.000                                                                  
R21  22270740.213                       -4144.847          45.000    22270739.721                       -3226.909          35.000  
R06  20975346.992                        -602.887          34.000                                                                  
R07  21238784.363                3        697.748          28.000                                                                  
R10  21613024.151   115209578.338        3532.126          40.000                                                                  
R09  19390491.720   103544232.659         838.640          51.000    19390489.454    80534329.291         652.674          43.000  
S37  36145447.219   189945597.984        -540.903          42.000  
G12  22342709.494   117411741.389         726.029          46.000    22342711.032    91489665.733         566.230          40.000                                                                  
G24  21762993.577   114365306.362       -3642.372          38.000                                                                                                                                  
C16  36153150.938   188258933.803        -445.447          45.000    36153151.096   145573761.408        -344.172          45.000  
R16  21365441.969                2      -3000.099          32.000    21365442.296                3      -2333.895          29.000  
E21  26118435.041   137253306.753        1792.063          36.000                                                                  
> 2025 10 27 02 14 13.9990000  0 23                     
G18  21666785.956   113859722.139       -3360.782          44.000    21666786.909    88721862.284       -2620.288          42.000                                                                  
S29  36550165.640   192072430.703        -541.923          45.000  
J03  35641042.859   187294932.742        -707.959          39.000    35641045.181   145944118.293        -551.807          42.000  
J07  36145554.165   189946161.117        -544.132          37.000    36145554.118   148009997.802        -423.441          48.000  
G25  21798408.625   114551408.073        2092.088          43.000    21798412.475    89260855.762        1630.255          40.000                                                                  
G23  19797969.666   104039034.146         -77.629          46.000    19797968.523    81069371.235         -60.700          43.000                                                                  
C08  36036056.725   187649197.176         231.550          39.000    36036049.051   145102240.5982        177.972          41.000  
C09  36893408.859   192113654.747        -104.574          43.000    36893407.069   148554449.043         -80.035          41.000  
C06  35739050.443   186102609.640        -254.666          44.000    35739044.962   143906320.132        -197.108          46.000  
C37  23658013.248   123193487.052        2374.213          46.000                                                                  
C23  21745222.180   113233075.715          82.361          49.000                                                                  
C39  35623268.556   185499709.258        -605.908          47.000                                                                  
R21  22271515.316                       -4148.442          44.000    22271515.885                3      -3226.609          34.000  
R06  20975460.077                        -602.833          31.000                                                                  
R07  21238655.787                3        695.035          32.000                                                                  
R10  21612361.910   115206048.526        3527.898          36.000                                                                  
R09  19390334.954   103543396.182         834.081          50.000    19390332.812    80533678.702         649.261          43.000  
S37  36145550.153   189946139.835        -543.684          41.000  
G12  22342571.527   117411015.609         724.890          48.000    22342573.008    91489100.235         564.941          38.000                                                                  
G24  21763686.776   114368948.854       -3643.672          38.000    21763690.954                1      -2839.815          37.000                                                                  
C16  36153237.041   188259381.930        -450.657          46.000    36153237.216   145574107.942        -347.939          45.000  
E21  26118095.622   137251515.900        1791.221          36.000                                                                  
R16                                                                  21366003.765                3      -2330.158          28.000  
> 2025 10 27 02 14 14.9990000  0 23                     
G18  21667425.469   113863082.595       -3362.145          46.000    21667426.410    88724480.812       -2618.638          42.000                                                                  
S29  36550268.447   192072971.205        -541.605          44.000  
J03  35641177.460   187295640.361        -709.009          44.000    35641179.722   145944669.639        -552.148          40.000  
J07  36145657.301   189946703.134        -542.456          41.000    36145657.461   148010420.178        -422.686          45.000  
G25  21798009.966   114549314.236        2093.151          34.000    21798013.974    89259224.234        1630.655          31.000                                                                  
G23  19797984.086   104039110.191         -76.755          44.000    19797982.884    81069430.442         -59.008          45.000                                                                  
C08  36036012.181   187648965.222         231.981          40.000    36036004.445   145102061.141         179.110          45.000  
C09  36893428.586   192113757.366        -102.955          44.000    36893426.846   148554528.415         -80.364          41.000  
C06  35739099.175   186102862.840        -254.585          43.000    35739093.581   143906515.983        -197.690          42.000  
C37  23657556.628   123191109.202        2377.960          45.000                                                                  
C23  21745206.095   113232992.426          82.222          49.000                                                                  
C39  35623384.605   185500313.220        -604.352          47.000                                                                  
R21  22272290.400   119183524.635       -4148.193          45.000    22272291.463                1      -3228.580          34.000  
R06  20975573.143                        -603.058          32.000                                                                  
R07  21238526.331                2        694.491          32.000    21238529.019                3        540.576          29.000  
R10  21611699.877   115202519.017        3528.251          40.000                                                                  
R09  19390178.448   103542560.437         834.559          50.000    19390176.312    80533028.718         649.140          42.000  
S37  36145653.130   189946681.850        -542.423          44.000  
G12  22342433.434   117410289.813         724.090          41.000    22342434.857    91488534.676         565.328          39.000                                                                  
G24  21764379.986   114372591.110       -3642.535          41.000    21764381.904                       -2838.775          33.000                                                                  
C16  36153323.132   188259830.630        -449.944          47.000    36153323.346   145574454.890        -347.684          46.000  
R16  21366569.993                3      -2996.653          29.000    21366566.526                2      -2328.759          27.000  
E21  26117755.540   137249725.163        1790.656          37.000                                                                  
> 2025 10 27 02 14 15.9990000  0 24                     
G18  21668064.907   113866443.002       -3362.060          42.000    21668065.934    88727099.202       -2618.594          39.000                                                                  
S29  36550371.180   192073511.217        -541.393          44.000  
J03  35641312.029   187296347.658        -708.148          44.000    35641314.296   145945220.813        -551.685          41.000  
J07  36145760.522   189947244.937        -544.017          41.000    36145760.568   148010842.368        -423.806          43.000  
G25  21797611.636                        2092.083          35.000    21797615.381                        1630.242          31.000                                                                  
G23  19797998.577   104039186.502         -78.626          43.000    19797997.531    81069489.937         -61.251          43.000                                                                  
C08  36035967.695   187648733.131         229.657          38.000    36035960.062   145101881.588         178.823          45.000  
C09  36893448.199   192113859.730        -103.340          45.000    36893446.555   148554607.619         -81.166          39.000  
C06  35739147.717   186103115.805        -254.252          45.000    35739142.278   143906711.625        -197.894          45.000  
C37  23657099.928   123188731.320        2376.404          46.000                                                                  
C23  21745190.202   113232909.336          81.156          49.000                                                                  
C39  35623500.708   185500917.117        -605.145          50.000                                                                  
R21  22273065.536   119187672.553       -4148.793          48.000    22273065.352                       -3227.342          33.000  
R06  20975685.895                        -603.588          33.000                                                                  
R07  21238395.452                2        693.895          32.000                                                                  
R10  21611037.819                        3528.679          34.000                                                                  
R09  19390022.086   103541725.303         833.099          49.000    19390019.912    80532379.147         648.499          42.000  
S37  36145756.343   189947223.667        -543.869          44.000  
G12  22342295.516   117409564.338         724.775          40.000    22342296.976    91487969.287         564.165          31.000                                                                  
G24  21765073.123   114376233.491       -3644.645          36.000    21765076.519    89124351.6651      -2838.750          36.000                                                                  
C16  36153409.332   188260279.179        -450.702          46.000    36153409.507   145574801.711        -347.596          46.000  
R16  21367129.746                2      -3001.397          37.000    21367128.409                3      -2334.425          27.000  
E21  26117414.254                        1789.646          37.000                                                                  
C13                                                                  36237056.879   145911611.341         265.577          39.000  
> 2025 10 27 02 14 16.9990000  0 24                     
G18  21668704.121   113869802.520       -3359.345          44.000    21668705.444    88729717.067       -2616.806          41.000                                                                  
S29  36550473.747   192074050.206        -537.309          41.000  
J03  35641446.715   187297054.344        -707.007          26.000    35641448.954   145945771.510        -549.603          33.000  
J07  36145863.446   189947785.845        -538.689          37.000    36145863.362   148011263.950        -420.981          43.000  
G25  21797213.515   114545126.303        2094.932          38.000    21797217.013                        1631.314          35.000                                                                  
G23  19798012.876   104039262.892         -74.079          42.000    19798012.254    81069549.549         -58.736          46.000                                                                  
C08  36035923.182   187648500.809         233.654          41.000    36035915.478   145101702.027         180.841          42.000  
C09  36893467.710   192113961.195         -99.952          43.000    36893465.975   148554685.862         -77.153          43.000  
C06  35739196.236   186103367.998        -251.013          47.000    35739190.787   143906906.630        -194.491          45.000  
C37  23656642.745   123186352.509        2379.376          46.000                                                                  
C23  21745174.266   113232826.326          83.079          50.000                                                                  
C39  35623616.701   185501520.420        -602.069          49.000                                                                  
R21  22273840.439   119191819.369       -4146.623          48.000    22273840.893                       -3225.497          37.000  
R06  20975798.866                        -601.532          30.000                                                                  
R07  21238263.132                3        698.232          38.000    21238269.049                3        540.113          24.000  
R10  21610375.974                2       3533.320          36.000                                                                  
R09  19389865.762   103540890.458         835.488          51.000    19389863.543    80531729.821         650.008          45.000  
S37  36145859.244   189947764.558        -538.785          40.000  
G12  22342157.777   117408839.406         726.340          35.000    22342159.034                         565.333          32.000                                                                  
G24  21765766.415   114379876.320       -3641.389          39.000    21765769.389    89127190.324       -2837.944          36.000                                                                  
C16  36153495.321   188260727.024        -446.359          45.000    36153495.586   145575148.104        -345.529          45.000  
E21  26117084.374                1       1793.514          30.000                                                                  
C13                                                                  36236990.709   145911344.352         268.368          35.000  
R16                                                                  21367690.646                3      -2335.024          27.000  
> 2025 10 27 02 14 17.9990000  0 23                     
G18  21669343.192   113873161.736       -3361.383          47.000    21669344.532    88732334.626       -2619.416          41.000                                                                  
S29  36550575.901   192074588.210        -538.738          43.000  
J03  35641580.397   187297768.5473       -707.526          45.000    35641583.166   145946321.358        -549.847          36.000  
J07  36145965.809   189948325.842        -540.121          44.000    36145965.919   148011684.582        -420.891          42.000  
G25  21796814.797   114543031.756        2094.289          40.000    21796818.559                3       1634.404          26.000                                                                  
G23  19798027.088   104039338.501         -75.417          44.000    19798026.711    81069608.465         -59.600          44.000                                                                  
C08  36035878.361   187648267.142         233.355          38.000    36035870.664   145101521.317         180.698          47.000  
C09  36893486.968   192114061.620        -100.998          41.000    36893485.239   148554763.646         -77.837          45.000  
C06  35739244.456   186103619.188        -252.059          44.000    35739239.048   143907100.773        -194.887          45.000  
C37  23656185.524   123183973.281        2377.820          46.000                                                                  
C23  21745158.220   113232742.587          83.112          48.000                                                                  
C39  35623732.247   185502122.494        -602.686          47.000                                                                  
R21  22274615.110   119195965.560       -4145.579          44.000    22274616.206                       -3226.587          40.000  
R06  20975911.510                        -599.460          30.000                                                                  
R07  21238137.559                3        695.592          27.000                                                                  
R09  19389709.429   103540055.173         834.219          50.000    19389707.122    80531080.204         648.790          42.000  
S37  36145961.673   189948304.585        -540.343          47.000  
G12  22342019.537                3        722.815          28.000    22342021.219                3        567.292          26.000                                                                  
G24  21766459.261                       -3639.930          37.000    21766462.528                       -2837.648          32.000                                                                  
C16  36153581.065   188261173.788        -447.563          45.000    36153581.369   145575493.492        -345.503          44.000  
E21  26116726.734                        1793.846          30.000                                                                  
C13                                                                  36236924.188   145911076.206         268.051          40.000  
R16                                                                  21368252.973                2      -2333.642          26.000  
> 2025 10 27 02 14 18.9990000  0 24                     
G18  21669982.625   113876521.969       -3361.051          46.000    21669983.946    88734952.992       -2619.518          43.000                                                                  
S29  36550678.534   192075127.261        -538.249          43.000  
J03  35641715.125   187298474.8911       -706.952          41.000    35641717.722   145946872.131        -550.201          33.000  
J07  36146068.859   189948866.854        -540.509          42.000    36146068.834   148012106.118        -421.957          45.000  
G25  21796416.363                        2095.212          32.000                                                                                                                                  
G23  19798041.742   104039415.645         -77.487          45.000    19798041.323    81069668.511         -59.970          45.000                                                                  
C08  36035833.701   187648034.434         232.555          40.000    36035826.094   145101341.378         179.971          47.000  
C09  36893506.644   192114163.422        -101.279          44.000    36893504.807   148554842.351         -79.107          45.000  
C06  35739293.005   186103871.770        -252.933          45.000    35739287.666   143907296.179        -195.854          43.000  
C37  23655728.645   123181594.856        2377.820          46.000                                                                  
C23  21745142.566   113232660.422          81.446          50.000                                                                  
C39  35623848.067   185502725.984        -603.778          48.000                                                                  
R21  22275389.887   119200112.498       -4146.910          45.000    22275390.828    92711201.0941      -3225.097          37.000  
R06  20976024.502                        -602.781          30.000                                                                  
R07  21238013.739                2        697.606          35.000                                                                  
R10  21609059.262                3       3528.370          27.000                                                                  
R09  19389553.269   103539221.641         833.220          51.000    19389550.912    80530431.876         647.607          44.000  
S37  36146064.680   189948845.577        -540.726          46.000  
G12  22341883.799   117407391.6723        723.554          38.000    22341883.748                1        565.515          30.000                                                                  
G24  21767152.490                       -3642.347          37.000    21767157.931                1      -2838.581          33.000                                                                  
C16  36153667.267   188261621.993        -448.480          48.000    36153667.403   145575840.000        -346.742          45.000  
R16  21368812.688                3      -3001.004          31.000    21368814.669                2      -2334.348          27.000  
E21  26116405.954                        1791.161          34.000                                                                  
C13                                                                  36236857.885   145910808.924         267.372          35.000  
> 2025 10 27 02 14 19.9990000  0 24                     
G18  21670621.999   113879882.096       -3359.883          42.000    21670623.557    88737571.313       -2618.776          42.000                                                                  
S29  36550781.046   192075665.832        -538.189          42.000  
J03  35641849.984   187299181.524        -705.872          35.000    35641854.142                1       -551.166          29.000  
J07  36146171.766   189949407.285        -539.868          42.000    36146171.731   148012527.264        -421.119          43.000  
G25  21796018.010   114538844.081        2093.602          37.000                                                                                                                                  
G23  19798056.336   104039492.523         -76.532          44.000    19798055.810    81069728.487         -59.658          44.000                                                                  
C08  36035788.890   187647801.088         234.248          42.000    36035781.404   145101161.037         180.240          42.000  
C09  36893526.254   192114264.879        -102.328          43.000    36893524.393   148554920.789         -78.397          43.000  
C06  35739341.337   186104123.829        -252.560          45.000    35739336.108   143907491.060        -194.510          43.000  
C37  23655271.719   123179216.462        2378.906          45.000                                                                  
C23  21745126.881   113232578.248          81.880          50.000                                                                  
C39  35623964.075   185503328.941        -603.680          47.000                                                                  
R21  22276164.806   119204259.128       -4146.927          46.000    22276165.538    92714426.208       -3225.227          35.000  
R06  20976137.058                        -599.697          34.000                                                                  
R10  21608395.581                2       3528.335          32.000                                                                  
R09  19389397.219   103538388.397         832.723          51.000    19389394.930    80529783.794         648.302          42.000  
S37  36146167.680   189949386.000        -539.726          46.000  
G12  22341745.307                3        724.971          32.000    22341745.758                3        566.082          22.000                                                                  
G24  21767845.555   114390802.679       -3643.563          34.000    21767849.995    89135710.2101      -2836.899          32.000                                                                  
G10  21780070.880                2       2144.679          33.000                                                                                                                                  
C16  36153753.104   188262069.703        -447.874          47.000    36153753.485   145576186.245        -347.085          44.000  
R16  21369376.373                2      -2999.308          36.000    21369378.461                3      -2332.742          27.000  
E21  26116068.209                        1793.879          34.000                                                                  
C13                                                                  36236791.385   145910541.134         267.645          35.000  
> 2025 10 27 02 14 20.9990000  0 24                     
G18  21671261.191   113883241.816       -3360.004          37.000    21671262.835    88740189.292       -2618.937          41.000                                                                  
S29  36550883.317   192076203.699        -538.390          38.000  
J03  35641985.226                        -705.884          26.000    35641995.340   145947984.3811       -549.487          36.000  
J07  36146274.404   189949946.921        -540.146          37.000    36146274.539   148012947.776        -420.271          43.000  
G25  21795619.313                3       2093.361          31.000    21795625.551                3       1634.231          25.000                                                                  
G23  19798071.035   104039569.437         -78.010          41.000    19798070.443    81069788.447         -59.960          39.000                                                                  
C08  36035743.708   187647567.552         232.078          40.000    36035736.599   145100980.392         180.488          42.000  
C09  36893545.355   192114365.657        -100.661          42.000    36893543.678   148554998.727         -77.929          43.000  
C06  35739389.350   186104375.318        -251.926          46.000    35739384.391   143907685.493        -194.447          45.000  
C37  23654814.648                        2378.870          43.000                                                                  
C23  21745110.711   113232495.905          81.035          48.000                                                                  
C39  35624079.553   185503931.318        -602.710          47.000                                                                  
R21  22276939.691   119208405.116       -4144.792          40.000    22276940.511    92717650.909       -3225.085          37.000  
R06  20976249.804                        -602.713          29.000                                                                  
R10  21607736.550                3       3529.005          32.000                                                                  
R09  19389241.296   103537555.225         832.111          48.000    19389238.955    80529135.741         648.361          43.000  
S37  36146270.340   189949925.635        -540.074          39.000  
G12  22341611.672                3        723.625          32.000    22341609.353                3        578.986          21.000                                                                  
G24  21768538.426                       -3641.322          31.000    21768544.238                       -2838.887          32.000                                                                  
G10  21779663.852                2       2142.186          28.000                                                                                                                                  
C16  36153838.584   188262516.809        -447.089          44.000    36153839.395   145576531.976        -345.756          45.000  
R16  21369939.242                3      -3000.810          34.000    21369938.697                2      -2335.080          27.000  
E21  26115712.964   137239035.2221       1792.684          36.000                                                                  
C13                                                                  36236724.897   145910273.004         268.206          35.000  
> 2025 10 27 02 14 21.9990000  0 26                     
G18  21671900.112   113886601.575       -3358.644          46.000    21671902.228    88742807.246       -2618.204          42.000                                                                  
S29  36550985.531   192076741.080        -537.827          46.000  
J03  35642119.796                        -704.315          35.000    35642129.732                3       -549.430          33.000  
J07  36146376.898   189950486.002        -538.627          43.000    36146377.155   148013367.774        -419.719          44.000  
G25  21795223.821                2       2094.069          35.000                                                                                                                                  
G23  19798085.568   104039646.037         -75.941          46.000    19798085.033    81069848.051         -59.715          41.000                                                                  
C08  36035698.866   187647333.091         235.254          41.000    36035691.586   145100799.000         181.569          39.000  
C09  36893564.611   192114466.182        -100.628          44.000    36893562.952   148555076.446         -77.623          42.000  
C06  35739437.738   186104626.371        -251.096          45.000    35739432.586   143907879.604        -193.990          45.000  
C37  23654357.954   123174458.435        2378.510          48.000                                                                  
C23  21745094.963   113232413.312          82.365          48.000                                                                  
C39  35624195.271   185504533.106        -601.764          49.000                                                                  
R21  22277714.414   119212551.236       -4145.126          43.000    22277715.405    92720875.654       -3226.658          38.000  
R06  20976362.467                        -601.463          27.000                                                                  
R07  21237622.388                3        696.494          32.000    21237616.715                3        544.602          23.000  
R10  21607080.922                3       3528.552          32.000                                                                  
R09  19389085.206   103536722.211         833.215          48.000    19389083.042    80528487.898         648.343          41.000  
S37  36146372.768   189950464.719        -538.458          47.000  
G12  22341471.407                2        725.629          41.000    22341471.363                         564.622          25.000                                                                  
G24  21769231.161                       -3641.393          35.000    21769237.057                1      -2836.258          28.000                                                                  
G10  21779257.109                3       2145.063          33.000                                                                                                                                  
C16  36153924.442   188262963.284        -446.436          47.000    36153925.154   145576877.204        -345.255          46.000  
C58  40661976.402                       -2855.075          33.000                                                                  
E21  26115386.045                        1793.830          30.000                                                                  
C13                                                                  36236658.112   145910004.196         269.242          39.000  
R16                                                                  21370501.096                3      -2335.277          26.000  
> 2025 10 27 02 14 22.9990000  0 24                     
G18  21672539.547   113889962.109       -3361.528          45.000    21672541.702    88745425.824       -2620.055          43.000                                                                  
S29  36551087.900   192077278.883        -538.352          49.000  
J03  35642254.647                        -705.548          36.000    35642269.581   145949135.1661       -551.764          40.000  
J07  36146479.545   189951025.286        -540.609          41.000    36146479.893   148013788.036        -420.907          45.000  
G25  21794826.644                2       2093.339          35.000                                                                                                                                  
G23  19798100.205   104039723.023         -78.471          45.000    19798099.631    81069908.003         -61.079          41.000                                                                  
C08  36035653.762   187647098.548         233.118          45.000    36035646.696   145100617.611         180.768          43.000  
C09  36893584.101   192114567.290        -101.556          46.000    36893582.297   148555154.600         -78.136          43.000  
C06  35739485.966   186104877.962        -252.391          48.000    35739480.936   143908074.256        -195.687          41.000  
C37  23653901.196   123172079.942        2377.136          44.000                                                                  
C23  21745079.301   113232331.377          80.725          51.000                                                                  
C39  35624310.943   185505135.374        -603.766          48.000                                                                  
R21  22278489.266   119216697.708       -4147.560          43.000    22278490.368                       -3226.903          33.000  
R09  19388929.347   103535889.987         830.815          49.000    19388927.129    80527840.607         645.820          41.000  
S37  36146475.437   189951004.002        -540.268          46.000  
G12  22341331.755   117404499.4003        724.837          33.000    22341334.601                3        565.892          25.000                                                                  
G24  21769924.030   114401727.394       -3642.796          37.000    21769929.693                       -2837.325          26.000                                                                  
E33  23572255.508   123873038.625       -1384.621          38.000                                                                  
G10  21778846.673                2       2144.207          32.000                                                                                                                                  
C16  36154010.246   188263410.414        -448.497          47.000    36154011.078   145577222.969        -346.910          44.000  
C58  40662523.277                3      -2846.799          29.000                                                                  
E21  26115046.989                1       1792.662          30.000                                                                  
C13                                                                  36236591.390   145909735.444         268.197          44.000  
R16                                                                  21371069.076                3      -2327.436          24.000  
> 2025 10 27 02 14 23.9990000  0 25                     
G18  21673178.852   113893322.503       -3361.147          48.000    21673181.175    88748044.249       -2618.579          43.000                                                                  
S29  36551190.182   192077816.315        -537.135          47.000  
J03  35642389.694                3       -705.792          40.000    35642403.044   145949684.989        -550.433          36.000  
J07  36146582.081   189951564.026        -538.313          40.000    36146582.465   148014207.872        -420.098          44.000  
G25  21794434.866   114530485.2893       2094.147          33.000    21794436.157                        1633.331          32.000                                                                  
G23  19798114.853   104039800.000         -77.511          41.000    19798114.204    81069967.985         -60.535          42.000                                                                  
C08  36035608.592   187646863.618         235.359          42.000    36035601.637   145100435.954         181.200          42.000  
C09  36893603.345   192114668.067        -100.387          44.000    36893601.679   148555232.581         -78.150          42.000  
C06  35739534.186   186105129.323        -252.236          44.000    35739529.177   143908268.463        -194.670          42.000  
C37  23653444.143   123169701.201        2379.260          40.000                                                                  
C23  21745063.440   113232249.376          81.701          50.000                                                                  
C39  35624426.498   185505737.214        -602.020          49.000                                                                  
R21  22279264.024   119220843.866       -4147.744          46.000    22279265.121                       -3224.340          33.000  
R10  21605751.561                2       3529.888          34.000                                                                  
R09  19388773.336   103535058.047         831.471          51.000    19388771.250    80527193.577         646.131          36.000  
S37  36146577.885   189951542.779        -538.997          45.000  
G12  22341193.660                3        726.325          34.000    22341197.030                3        565.836          30.000                                                                  
G24  21770616.776                       -3642.676          28.000    21770620.325                1      -2837.163          26.000                                                                  
E33  23572519.481   123874422.532       -1384.646          36.000                                                                  
G10  21778443.056                2       2146.718          30.000                                                                                                                                  
C16  36154095.831   188263857.134        -446.379          47.000    36154096.879   145577568.424        -345.900          43.000  
C58  40663066.837                2      -2845.841          36.000                                                                  
R16  21371628.439                3      -3002.540          34.000    21371632.773                3      -2323.362          23.000  
E21  26114698.667   137233667.2291       1794.375          34.000                                                                  
C13                                                                  36236524.564   145909466.291         268.944          44.000  
> 2025 10 27 02 14 24.9990000  0 26                     
G18  21673818.228   113896682.806       -3359.940          47.000    21673820.768    88750662.704       -2618.372          41.000                                                                  
S29  36551292.401   192078353.381        -536.426          46.000  
J03  35642522.144                3       -704.779          27.000    35642539.648   145950234.638        -549.506          36.000  
J07  36146684.321   189952102.544        -537.870          39.000    36146684.999   148014627.462        -418.434          40.000  
G25  21794050.218   114528391.068        2095.218          40.000                                                                                                                                  
G23  19798129.591   104039877.266         -76.102          42.000    19798128.862    81070028.164         -59.189          42.000                                                                  
C08  36035563.461   187646628.498         236.085          42.000    36035556.512   145100254.126         182.548          43.000  
C09  36893622.720   192114768.765         -99.123          43.000    36893621.008   148555310.373         -77.731          44.000  
C06  35739582.412   186105380.434        -249.686          46.000    35739577.442   143908462.695        -193.263          41.000  
C37  23652987.370   123167322.367        2378.888          45.000                                                                  
C23  21745047.586   113232167.666          82.885          50.000                                                                  
C39  35624542.058   185506338.941        -600.562          49.000                                                                  
R21  22280038.669   119224989.627       -4145.693          49.000    22280039.880                       -3224.343          38.000  
R06  20976700.155                3       -585.557          27.000                                                                  
R10  21605088.710                2       3532.786          33.000                                                                  
R09  19388617.733   103534226.637         832.579          48.000    19388615.564    80526546.890         647.254          41.000  
S37  36146680.179   189952081.248        -537.292          43.000  
G12  22341061.179                2        722.723          25.000    22341060.150                         565.019          27.000                                                                  
G24  21771310.115                3      -3638.063          28.000                                                                                                                                  
E33  23572783.732   123875806.567       -1382.037          37.000                                                                  
G10  21778035.430                2       2145.925          33.000                                                                                                                                  
C16  36154181.709   188264303.836        -444.674          47.000    36154182.656   145577913.770        -344.895          43.000  
C58  40663608.380                2      -2844.582          41.000                                                                  
R16  21372189.052                2      -3001.616          33.000    21372193.228                3      -2330.265          23.000  
E21  26114376.453                        1793.702          29.000                                                                  
C13                                                                  36236457.707   145909196.989         269.958          45.000  
> 2025 10 27 02 14 25.9990000  0 26                     
G18  21674457.430   113900041.851       -3358.161          46.000    21674459.829    88753280.130       -2618.194          35.000                                                                  
S29  36551394.372   192078888.937        -535.072          46.000  
J03  35642657.574                2       -702.472          37.000    35642673.561                3       -547.172          30.000  
J07  36146786.576   189952639.888        -535.977          44.000    36146787.236   148015046.217        -417.471          36.000  
G25  21793655.500   114526296.208        2096.092          39.000                                                                                                                                  
G23  19798144.255   104039954.262         -76.141          42.000    19798143.529    81070088.176         -59.172          39.000                                                                  
C08  36035518.078   187646392.791         236.633          39.000    36035511.369   145100071.920         182.977          40.000  
C09  36893641.663   192114867.997         -98.573          41.000    36893640.113   148555387.088         -75.282          36.000  
C06  35739630.340   186105630.441        -250.233          45.000    35739625.384   143908655.969        -192.468          37.000  
C37  23652530.102   123164942.201        2379.321          44.000                                                                  
C23  21745031.948   113232085.557          82.595          48.000                                                                  
C39  35624657.424   185506939.738        -600.018          46.000                                                                  
R21  22280813.235   119229133.840       -4143.334          47.000    22280814.288                       -3222.959          28.000  
R07  21237104.750                2        701.797          30.000                                                                  
R10  21604424.513                2       3531.556          30.000                                                                  
R09  19388462.106   103533395.123         833.069          49.000    19388459.828    80525900.104         647.754          33.000  
S37  36146782.316   189952618.612        -536.008          47.000  
G12  22340925.328                3        726.832          26.000    22340922.923                3        565.008          26.000                                                                  
G24  21772004.125                2      -3640.327          37.000                                                                                                                                  
E33  23573047.111   123877189.691       -1382.467          35.000                                                                  
G10  21777616.850                3       2147.722          33.000                                                                                                                                  
C16  36154267.473   188264749.316        -444.624          47.000    36154268.221   145578258.235        -343.456          40.000  
C58  40664153.295                2      -2841.879          40.000                                                                  
R16  21372752.819                3      -2995.723          32.000    21372754.207                3      -2333.220          22.000  
E21  26114021.279                1       1794.513          29.000                                                                  
C13                                                                  36236390.702   145908927.224         270.266          41.000  
> 2025 10 27 02 14 26.9990000  0 25                     
G18  21675096.424   113903400.709       -3358.407          42.000    21675098.958    88755897.457       -2617.719          39.000                                                                  
S29  36551496.043   192079423.707        -535.867          44.000  
J03  35642800.940                2       -710.297          20.000    35642808.473                        -549.219          35.000  
J07  36146888.674   189953176.374        -536.201          40.000    36146889.362   148015464.226        -418.331          40.000  
G25  21793258.232                        2091.671          29.000    21793243.908                3       1637.873          23.000                                                                  
G23  19798158.755   104040030.472         -76.682          39.000    19798158.066    81070147.568         -59.982          40.000                                                                  
C08  36035472.484   187646155.940         237.158          44.000    36035465.945   145099888.737         182.838          41.000  
C09  36893660.386   192114966.605         -99.346          44.000    36893659.103   148555463.381         -76.261          39.000  
C06  35739677.959   186105879.501        -249.567          48.000    35739673.224   143908848.631        -193.098          41.000  
C37  23652072.965   123162561.838        2379.395          50.000                                                                  
C23  21745015.567   113232002.994          82.048          50.000                                                                  
C39  35624772.318   185507539.469        -600.421          50.000                                                                  
R21  22281587.823   119233277.911       -4145.507          45.000    22281588.679                       -3222.840          35.000  
R10  21603765.029                3       3530.553          37.000                                                                  
R09  19388306.486   103532563.422         831.315          48.000    19388304.114    80525253.233         646.420          38.000  
S37  36146884.477   189953155.111        -536.764          43.000  
G12  22340783.015                2        723.638          31.000    22340785.632                3        564.631          23.000                                                                  
G24  21772696.621                3      -3638.619          32.000                                                                                                                                  
E33  23573310.144   123878572.251       -1383.518          37.000                                                                  
G10  21777211.933                2       2145.775          32.000                                                                                                                                  
C16  36154352.727   188265193.940        -445.438          49.000    36154353.671   145578602.044        -344.204          40.000  
C58  40664696.942   211751787.5431      -2843.162          44.000                                                                  
R16  21373316.102                2      -3002.713          32.000    21373315.850                3      -2336.498          22.000  
E21  26113693.556   137228312.0481       1795.474          37.000                                                                  
C13                                                                  36236323.519   145908656.462         270.522          37.000  
> 2025 10 27 02 14 27.9990000  0 27                     
G18  21675735.696   113906760.477       -3362.221          43.000    21675738.225    88758515.437       -2618.259          34.000                                                                  
S29  36551598.015   192079959.348        -535.927          46.000  
J03  35642931.490                2       -706.036          34.000    35642942.633                3       -548.131          28.000  
J07  36146990.850   189953713.223        -538.309          34.000    36146991.711   148015882.495        -419.037          40.000  
G25  21792856.535   114522104.628        2093.618          40.000    21792844.684                        1631.936          35.000                                                                  
G23  19798173.323   104040107.666         -78.875          42.000    19798172.807    81070207.633         -61.179          43.000                                                                  
C08  36035427.055   187645919.444         235.259          43.000    36035420.589   145099705.897         181.686          43.000  
C09  36893679.608   192115066.221        -100.816          45.000    36893678.191   148555540.428         -78.063          40.000  
C06  35739725.917   186106129.574        -251.012          45.000    35739721.275   143909041.993        -193.975          40.000  
C37  23651616.243   123160182.099        2379.187          49.000                                                                  
C23  21744999.717   113231921.147          80.061          50.000                                                                  
C39  35624887.800   185508140.109        -601.617          48.000                                                                  
R21  22282362.346   119237422.586       -4145.861          44.000    22282363.339    92740219.838       -3222.404          37.000  
R06  20977036.567                2       -598.645          27.000                                                                  
R07  21236841.362                3        701.174          26.000                                                                  
R10  21603100.373                3       3532.445          31.000                                                                  
R09  19388150.974   103531732.621         828.885          47.000    19388148.562    80524607.178         644.364          41.000  
S37  36146986.557   189953691.974        -538.710          37.000  
G12  22340647.626   117400894.7003        723.597          38.000    22340646.994                3        563.934          29.000                                                                  
G24  21773387.263   114419932.0033      -3640.917          35.000    21773390.339                1      -2837.007          30.000                                                                  
E33  23573573.447   123879956.509       -1385.902          35.000                                                                  
G10  21776805.861                2       2148.148          29.000                                                                                                                                  
C16  36154438.335   188265639.481        -446.775          47.000    36154439.268   145578946.584        -345.745          41.000  
C58  40665245.175   211754629.717       -2841.929          41.000                                                                  
R16  21373874.677                2      -3003.769          33.000    21373877.196                3      -2333.330          23.000  
E21  26113334.406                        1796.360          34.000                                                                  
C13                                                                  36236256.389   145908386.132         269.370          39.000  
> 2025 10 27 02 14 28.9990000  0 26                     
G18  21676375.163   113910120.216       -3359.008          47.000    21676377.513    88761133.294       -2617.198          40.000                                                                  
S29  36551699.788   192080494.585        -535.137          44.000  
J03  35643065.931   187305541.8643       -702.576          34.000    35643081.054                        -551.318          31.000  
J07  36147092.991   189954250.059        -536.812          40.000    36147093.887   148016300.937        -417.805          41.000  
G25  21792456.915   114520009.931        2094.503          41.000    21792446.935                3       1630.995          23.000                                                                  
G23  19798188.121   104040185.270         -77.934          44.000    19798187.534    81070268.085         -60.714          43.000                                                                  
C08  36035381.728   187645682.990         235.602          42.000    36035375.214   145099522.980         181.913          41.000  
C09  36893698.822   192115165.536         -98.882          45.000    36893697.254   148555617.151         -76.031          43.000  
C06  35739773.998   186106379.479        -249.512          46.000    35739769.217   143909235.225        -193.215          44.000  
C37  23651159.601   123157802.280        2379.248          43.000                                                                  
C23  21744984.114   113231839.957          80.775          51.000                                                                  
C39  35625003.306   185508740.627        -600.500          49.000                                                                  
R21  22283136.813   119241566.604       -4143.109          45.000    22283137.777    92743443.064       -3222.667          35.000  
R06  20977150.682                        -597.663          28.000                                                                  
R10  21602434.555                2       3532.529          40.000                                                                  
R09  19387995.482   103530902.891         829.502          46.000    19387993.207    80523961.719         645.127          42.000  
S37  36147088.680   189954228.792        -536.693          43.000  
G12  22340508.932   117400165.8243        723.918          35.000    22340508.501                3        564.029          24.000                                                                  
G24  21774080.455   114423571.9102      -3639.974          35.000    21774082.862                       -2837.524          33.000                                                                  
E33  23573836.541                       -1383.949          31.000                                                                  
G10  21776397.469   114435741.0143       2145.867          33.000                                                                                                                                  
C16  36154523.840   188266084.904        -445.414          46.000    36154524.852   145579291.008        -344.312          44.000  
C58  40665789.667   211757471.157       -2841.505          38.000                                                                  
E21  26112995.098                1       1795.719          24.000                                                                  
C13                                                                  36236189.245   145908115.631         270.529          40.000  
R16                                                                  21374439.202                3      -2335.793          22.000  
> 2025 10 27 02 14 29.9990000  0 27                     
G18  21677014.454   113913479.730       -3357.685          44.000    21677016.893    88763751.323       -2618.738          40.000                                                                  
S29  36551801.491   192081029.254        -533.802          44.000  
J03  35643194.823                3       -703.430          46.000    35643203.375   145953005.7621       -547.687          42.000  
J07  36147195.321   189954786.717        -536.808          40.000    36147196.553   148016719.041        -417.006          43.000  
G25  21792058.034   114517915.024        2095.033          41.000    21792056.640                        1633.834          24.000                                                                  
G23  19798202.923   104040263.123         -76.701          41.000    19798202.361    81070328.834         -60.196          43.000                                                                  
C08  36035336.310   187645446.346         236.687          43.000    36035329.887   145099339.999         183.252          43.000  
C09  36893717.809   192115264.510         -97.260          43.000    36893716.307   148555693.775         -75.272          42.000  
C06  35739822.041   186106629.195        -248.350          46.000    35739817.142   143909428.308        -192.031          42.000  
C37  23650702.760   123155422.267        2380.652          49.000                                                                  
C23  21744968.962   113231759.035          81.384          52.000                                                                  
C39  35625118.610   185509340.972        -599.713          49.000                                                                  
R21  22283911.145   119245710.247       -4142.690          43.000    22283912.171                       -3222.143          33.000  
R06  20977263.910                        -597.350          28.000                                                                  
R07  21236584.350                2        704.666          34.000                                                                  
R10  21601769.366   115149618.6123       3531.983          40.000                                                                  
R09  19387840.353   103530073.664         829.396          48.000    19387837.811    80523316.833         644.541          36.000  
S37  36147191.130   189954765.430        -536.551          44.000  
G12  22340367.713                3        722.907          28.000    22340372.445                3        560.913          24.000                                                                  
G24  21774772.685   114427212.0582      -3639.746          32.000    21774777.402                       -2836.215          32.000                                                                  
E33  23574100.388   123882724.373       -1382.300          37.000                                                                  
G10  21775990.679                3       2147.194          28.000                                                                                                                                  
C16  36154609.329   188266530.072        -443.958          47.000    36154610.289   145579635.260        -343.451          44.000  
C58  40666335.163   211760312.155       -2839.193          36.000                                                                  
E21  26112652.060                        1795.653          36.000                                                                  
C13                                                                  36236122.036   145907844.942         271.713          36.000  
R16                                                                  21374999.581                3      -2343.513          20.000  
> 2025 10 27 02 14 30.9990000  0 26                     
G18  21677653.359   113916837.233       -3356.974          44.000    21677655.766    88766367.359       -2615.654          41.000                                                                  
S29  36551902.859   192081561.691        -530.800          43.000  
J03  35643326.061   187306953.4761       -700.574          49.000    35643329.380   145953552.319        -546.948          44.000  
J07  36147296.421                3       -527.660          31.000    36147298.218                        -415.463          35.000  
G25  21791659.169   114515819.127        2095.819          42.000    21791661.401                        1634.199          34.000                                                                  
G23  19798217.823   104040340.546         -77.556          44.000    19798217.188    81070389.100         -59.766          44.000                                                                  
C08  36035290.780   187645209.168         238.148          43.000    36035284.386   145099156.633         183.743          45.000  
C09  36893736.390   192115361.400         -95.776          42.000    36893734.839   148555768.659         -74.233          42.000  
C06  35739869.727   186106877.018        -246.553          42.000    35739864.804   143909620.009        -190.834          41.000  
C37  23650245.364   123153039.890        2383.075          43.000                                                                  
C23  21744953.827   113231677.286          82.270          51.000                                                                  
C39  35625233.638   185509939.904        -598.315          48.000                                                                  
R21  22284684.970   119249851.407       -4141.064          42.000    22284686.033                       -3218.567          28.000  
R06  20977374.679                        -598.260          29.000                                                                  
R10  21601104.810   115146084.7061       3533.737          41.000                                                                  
R09  19387685.128   103529243.880         829.850          45.000    19387682.344    80522671.362         644.716          38.000  
S37  36147292.857   189955300.026        -535.810          36.000  
G12  22340233.473                2        724.201          33.000    22340237.190                3        569.225          24.000                                                                  
G24  21775464.667   114430852.825       -3639.848          41.000    21775468.555                       -2836.914          32.000                                                                  
E33  23574363.445   123884106.830       -1381.447          35.000                                                                  
G10  21775580.238                2       2147.944          28.000                                                                                                                                  
C16  36154694.592   188266973.675        -442.893          46.000    36154695.553   145579978.270        -342.034          43.000  
C58  40666880.155                       -2839.693          35.000                                                                  
R16  21375564.895                3      -3007.101          27.000    21375561.951                3      -2335.533          20.000  
E21  26112297.151                1       1796.610          31.000                                                                  
C13                                                                  36236054.753   145907573.894         271.569          40.000  
> 2025 10 27 02 14 31.9990000  0 27                     
G18  21678292.155   113920194.064       -3356.244          42.000    21678294.556    88768983.057       -2615.503          40.000                                                                  
S29  36552004.075   192082093.746        -531.979          43.000  
J03  35643456.131   187307653.600        -700.323          43.000    35643462.676   145954097.802        -546.057          41.000  
J07  36147400.515   189955871.6863       -533.594          39.000    36147399.795   148017551.122        -415.518          39.000  
G25  21791237.610   114513726.0873       2098.620          45.000    21791250.946                1       1637.096          35.000                                                                  
G23  19798232.406   104040417.464         -77.246          44.000    19798231.882    81070449.097         -59.859          38.000                                                                  
C08  36035245.195   187644971.270         237.576          41.000    36035238.805   145098972.644         183.666          38.000  
C09  36893754.862   192115457.761         -96.738          43.000    36893753.395   148555843.142         -74.855          42.000  
C06  35739917.243   186107124.337        -247.667          44.000    35739912.285   143909811.152        -191.165          42.000  
C37  23649787.845   123150656.822        2382.910          43.000                                                                  
C23  21744937.957   113231594.663          82.637          50.000                                                                  
C39  35625348.492   185510538.298        -598.230          48.000                                                                  
R21  22285458.836   119253992.049       -4140.460          37.000    22285459.675                3      -3220.250          27.000  
R06  20977486.470                        -598.238          29.000                                                                  
R10  21600438.313   115142550.170        3533.844          41.000                                                                  
R09  19387529.509   103528413.276         829.299          46.000    19387526.830    80522025.396         645.787          41.000  
S37  36147394.249   189955833.426        -533.792          43.000  
G12  22340097.578                3        719.917          32.000    22340100.484                3        566.361          24.000                                                                  
G24  21776156.780                3      -3635.764          25.000    21776162.204    89169739.3261      -2836.842          35.000                                                                  
E33  23574626.618   123885489.534       -1382.427          34.000                                                                  
G10  21775172.716                3       2154.019          28.000                                                                                                                                  
C16  36154779.713   188267416.631        -442.924          46.000    36154780.648   145580320.764        -342.661          45.000  
C58  40667425.142                3      -2837.180          32.000                                                                  
R16  21376124.544                3      -3002.969          35.000    21376125.997                3      -2339.316          21.000  
E21  26111944.832   137219246.9691       1800.604          44.000                                                                  
C13                                                                  36235987.357   145907302.462         271.150          40.000  
J04                                                                  38759952.787                1        114.301          38.000  
> 2025 10 27 02 14 32.9990000  0 26                     
G18  21678930.929   113923550.803       -3356.655          43.000    21678933.323    88771598.677       -2616.495          39.000                                                                  
S29  36552105.298   192082625.623        -532.562          44.000  
J03  35643590.054   187308352.786        -700.671          43.000    35643595.221   145954642.820        -545.465          41.000  
J07  36147498.408   189956404.0022       -532.216          39.000    36147501.040   148017965.971        -415.101          43.000  
G25  21790832.614   114511626.7022       2098.193          42.000    21790840.630    89229893.2831       1637.459          34.000                                                                  
G23  19798246.932   104040493.956         -76.896          47.000    19798246.312    81070508.600         -60.001          43.000                                                                  
C08  36035199.358   187644732.421         238.540          42.000    36035193.039   145098787.931         184.498          42.000  
C09  36893773.280   192115553.910         -96.429          42.000    36893771.850   148555917.517         -74.839          40.000  
C06  35739964.754   186107371.358        -247.309          44.000    35739959.697   143910002.138        -191.760          42.000  
C37  23649330.249   123148273.614        2384.192          43.000                                                                  
C23  21744921.947   113231511.490          81.640          49.000                                                                  
C39  35625463.329   185511136.204        -598.358          47.000                                                                  
R21  22286232.880                       -4141.782          37.000    22286234.678                3      -3225.222          25.000  
R06  20977597.379                        -596.462          34.000                                                                  
R09  19387373.887   103527582.189         831.186          49.000    19387371.165    80521378.916         646.956          39.000  
S37  36147495.503   189956365.737        -532.315          43.000  
G12  22339956.471                3        727.865          32.000    22339965.302                3        562.668          25.000                                                                  
G24  21776850.161                2      -3639.227          44.000    21776854.075                       -2835.217          32.000                                                                  
E33  23574889.944   123886872.392       -1383.029          37.000                                                                  
G10  21774763.251                2       2146.060          32.000                                                                                                                                  
C16  36154864.848   188267859.236        -443.120          46.000    36154865.659   145580663.012        -342.535          45.000  
C58  40667970.560                3      -2836.186          32.000                                                                  
R16  21376686.663                2      -2999.158          31.000    21376689.574                3      -2333.748          22.000  
E21  26111603.420   137217446.283        1802.847          37.000                                                                  
C13                                                                  36235919.828   145907030.674         270.852          37.000  
J04                                                                  38759914.619   158715408.4341        117.783          41.000  
> 2025 10 27 02 14 33.9990000  0 27                     
G18  21679569.877   113926907.840       -3357.210          43.000    21679572.289    88774214.537       -2616.842          41.000                                                                  
S29  36552206.404   192083157.614        -531.478          45.000  
J03  35643723.885   187309051.837        -698.828          40.000    35643729.576                1       -544.855          33.000  
J07  36147601.522   189956935.9432       -532.129          41.000    36147602.136   148018380.344        -413.901          40.000  
G25  21790435.721   114509527.1992       2099.300          46.000    21790440.523                        1634.600          36.000                                                                  
G23  19798261.545   104040570.534         -76.014          46.000    19798260.902    81070568.277         -58.824          43.000                                                                  
C08  36035153.560   187644493.294         240.764          46.000    36035147.098   145098603.010         186.023          44.000  
C09  36893791.952   192115650.436         -96.616          44.000    36893790.349   148555992.096         -75.279          43.000  
C06  35740012.184   186107618.465        -246.596          44.000    35740007.172   143910193.241        -190.925          43.000  
C37  23648872.671   123145890.417        2381.976          45.000                                                                  
C23  21744906.192   113231428.380          82.675          49.000                                                                  
C39  35625578.233   185511734.167        -597.369          48.000                                                                  
R21  22287007.013                       -4141.870          41.000    22287009.088                3      -3230.551          25.000  
R06  20977707.796                        -595.546          30.000                                                                  
R10  21599113.065                1       3533.118          39.000                                                                  
R09  19387218.485   103526751.378         831.449          49.000    19387215.612    80520732.828         646.871          41.000  
S37  36147596.787   189956897.670        -532.473          45.000  
G12  22339821.867                3        724.625          27.000    22339825.076                3        567.136          25.000                                                                  
G24  21777541.413   114441757.8903      -3637.509          44.000    21777544.830    89175410.405       -2834.205          38.000                                                                  
E33  23575153.347   123888255.936       -1383.775          39.000                                                                  
G10  21774355.239                3       2148.551          38.000                                                                                                                                  
C16  36154950.024   188268301.899        -442.289          47.000    36154950.665   145581005.276        -341.615          44.000  
C58  40668517.962                2      -2838.719          38.000                                                                  
R16  21377247.087                2      -3004.262          35.000    21377251.403                3      -2337.632          30.000  
E21  26111266.584                        1800.016          41.000                                                                  
C13                                                                  36235852.256   145906758.585         273.090          42.000  
J04                                                                  38759884.260   158715290.021         119.260          42.000  
> 2025 10 27 02 14 34.9990000  0 27                     
G18  21680209.005   113930265.718       -3358.495          46.000    21680211.270    88776830.922       -2615.956          39.000                                                                  
S29  36552307.785   192083690.240        -532.839          46.000  
J03  35643856.304   187309750.926        -700.903          41.000    35643861.317                        -541.919          32.000  
J07  36147702.093   189957467.5982       -531.748          38.000    36147703.317   148018794.842        -414.580          43.000  
G25  21790033.688                2       2099.500          42.000    21790040.842                        1636.355          38.000                                                                  
G23  19798276.164   104040647.216         -76.704          47.000    19798275.507    81070628.079         -60.149          43.000                                                                  
C08  36035107.695   187644253.958         239.293          44.000    36035101.247   145098417.951         185.009          43.000  
C09  36893810.596   192115747.492         -97.772          45.000    36893808.981   148556067.077         -73.879          39.000  
C06  35740059.807   186107866.142        -248.067          45.000    35740054.708   143910384.740        -191.519          43.000  
C37  23648415.200   123143507.884        2380.969          47.000                                                                  
C23  21744890.248   113231345.413          83.322          49.000                                                                  
C39  35625693.070   185512332.405        -598.291          47.000                                                                  
R21  22287781.347                3      -4154.135          31.000    22287783.143                3      -3222.069          24.000  
R06  20977820.495                3       -596.007          29.000                                                                  
R10  21598450.312                3       3534.573          37.000                                                                  
R09  19387062.845   103525921.044         829.301          49.000    19387060.071    80520086.909         645.381          40.000  
S37  36147697.947   189957429.323        -531.776          42.000  
G12  22339675.884                2        726.901          34.000    22339685.901                         565.406          26.000                                                                  
G24  21778234.672   114445395.8562      -3638.032          46.000    21778236.782    89178245.097       -2835.122          39.000                                                                  
E33  23575417.007   123889640.365       -1384.825          39.000                                                                  
G10  21773946.694   114422861.2193       2146.594          37.000                                                                                                                                  
C16  36155035.217   188268744.912        -443.143          48.000    36155035.777   145581347.827        -342.568          43.000  
C58  40669064.823   211774483.1733      -2839.113          38.000                                                                  
E21  26110919.572                        1801.680          41.000                                                                  
C13                                                                  36235784.755   145906486.523         271.797          41.000  
R16                                                                  21377811.944                3      -2335.816          29.000  
J04                                                                  38759854.207   158715171.257         118.568          40.000  
> 2025 10 27 02 14 35.9990000  0 28                     
G18  21680848.005   113933623.683       -3359.030          44.000    21680850.289    88779447.697       -2617.258          38.000                                                                  
S29  36552409.001   192084222.666        -533.028          43.000  
J03  35643990.793   187310449.651        -700.415          47.000    35643996.987                1       -542.657          39.000  
J07  36147803.636   189957998.7982       -530.192          40.000    36147804.403   148019208.703        -412.986          43.000  
G25  21789633.743   114505327.4402       2100.779          42.000    21789643.202                        1637.738          37.000                                                                  
G23  19798290.703   104040723.699         -76.617          47.000    19798290.035    81070687.621         -59.843          43.000                                                                  
C08  36035061.633   187644013.740         240.577          44.000    36035055.142   145098232.230         186.195          41.000  
C09  36893829.345   192115844.495         -97.628          43.000    36893827.574   148556142.141         -75.698          41.000  
C06  35740107.631   186108113.595        -247.871          45.000    35740102.292   143910576.079        -191.925          44.000  
C37  23647957.861   123141125.457        2380.780          48.000                                                                  
C23  21744874.395   113231262.216          82.718          48.000                                                                  
C39  35625807.901   185512930.203        -598.242          48.000                                                                  
R21  22288561.419   119270594.0843      -4142.447          42.000    22288559.025                2      -3222.354          37.000  
R06  20977929.705                3       -597.193          16.000                                                                  
R07  21235795.667                3        710.347          33.000                                                                  
R10  21597787.238   115128359.4663       3533.659          38.000                                                                  
R09  19386907.392   103525090.725         829.445          49.000    19386904.654    80519441.238         645.254          45.000  
S37  36147799.078   189957960.529        -530.049          42.000  
G12  22339534.103                2        725.981          35.000    22339546.824                3        566.544          26.000                                                                  
G24  21778926.537   114449033.3672      -3637.181          35.000    21778929.141                       -2834.279          24.000                                                                  
E33  23575680.267   123891025.033       -1384.770          42.000                                                                  
G10  21773538.624   114420717.5892       2146.521          33.000                                                                                                                                  
C16  36155120.118   188269187.607        -442.900          46.000    36155120.760   145581690.139        -342.373          44.000  
C58  40669608.331                3      -2841.292          29.000                                                                  
E21  26110577.810   137212041.537        1801.238          42.000                                                                  
C13                                                                  36235717.073   145906213.933         272.971          42.000  
R16                                                                  21378374.799                3      -2335.906          21.000  
J04                                                                  38759824.619   158715051.650         120.124          41.000  
> 2025 10 27 02 14 36.9990000  0 27                     
G18  21681487.270   113936983.097       -3359.417          44.000    21681489.537    88782065.393       -2618.589          37.000                                                                  
S29  36552510.429   192084755.900        -533.019          45.000  
J03  35644123.492   187311149.585        -699.847          41.000    35644129.352                        -547.577          40.000  
J07  36147905.942   189958530.958        -533.500          39.000    36147905.663   148019623.373        -415.560          43.000  
G25  21789234.726                1       2100.982          41.000    21789241.613                        1634.095          34.000                                                                  
G23  19798305.422   104040801.000         -77.666          45.000    19798304.826    81070747.871         -60.532          45.000                                                                  
C08  36035015.514   187643773.953         239.553          42.000    36035009.174   145098046.821         185.171          43.000  
C09  36893848.246   192115942.626         -98.168          44.000    36893846.368   148556217.946         -75.854          41.000  
C06  35740155.265   186108361.759        -249.012          44.000    35740149.885   143910767.939        -192.161          41.000  
C37  23647500.549   123138744.270        2381.030          42.000                                                                  
C23  21744858.424   113231180.393          81.608          48.000                                                                  
C39  35625922.878   185513528.695        -598.340          46.000                                                                  
R21  22289333.013                2      -4144.052          38.000    22289335.212    92769238.1593      -3223.774          34.000  
R06  20978043.855                3       -611.580          14.000                                                                  
R07  21235657.549                2        704.873          33.000    21235653.285                3        549.232          30.000  
R09  19386752.190   103524262.080         828.292          46.000    19386749.395    80518796.631         643.603          44.000  
S37  36147900.333   189958492.685        -533.761          44.000  
G12  22339396.283                3        725.275          31.000    22339405.213                3        570.937          27.000                                                                  
G24  21779617.477                3      -3630.861          25.000                                                                                                                                  
E33  23575944.082   123892410.965       -1385.977          41.000                                                                  
G10  21773127.728                2       2147.197          29.000                                                                                                                                  
C16  36155205.657   188269631.184        -443.794          50.000    36155205.977   145582033.186        -343.328          43.000  
C58  40670154.872                2      -2837.819          35.000                                                                  
E21  26110234.199   137210240.719        1799.217          42.000    26110243.822                1       1379.955          39.000  
C13                                                                  36235649.466   145905941.424         272.526          42.000  
R16                                                                  21378936.826                3      -2329.503          18.000  
J04                                                                  38759795.392   158714932.382         119.240          42.000  
> 2025 10 27 02 14 37.9990000  0 27                     
G18  21682126.534   113940342.779       -3359.318          43.000    21682128.851    88784683.288       -2617.834          41.000                                                                  
S29  36552611.892   192085288.706        -532.631          45.000  
J03  35644256.622   187311849.953        -700.586          44.000    35644262.112   145957299.8831       -545.062          33.000  
J07  36148007.610   189959063.111        -531.553          37.000    36148006.804   148020037.973        -414.497          42.000  
G25  21788835.512   114501130.2091       2098.668          43.000    21788843.489    89221714.386        1636.493          31.000                                                                  
G23  19798320.074   104040878.107         -76.954          44.000    19798319.573    81070808.016         -60.041          43.000                                                                  
C08  36034969.234   187643533.346         241.093          42.000    36034962.996   145097860.802         186.426          42.000  
C09  36893867.023   192116040.502         -97.643          43.000    36893865.254   148556293.666         -75.826          43.000  
C06  35740203.262   186108609.808        -247.599          46.000    35740197.674   143910959.746        -191.539          46.000  
C37  23647043.349   123136363.478        2380.377          44.000                                                                  
C23  21744842.727   113231098.707          81.987          49.000                                                                  
C39  35626037.768   185514126.645        -597.626          48.000                                                                  
R21  22290106.272   119278866.0452      -4143.205          38.000    22290110.134                3      -3221.276          26.000  
R06  20978155.271                3       -596.499          14.000                                                                  
R10  21596463.438                3       3533.410          38.000                                                                  
R09  19386597.144   103523433.987         828.489          46.000    19386594.371    80518152.552         644.455          43.000  
S37  36148001.624   189959024.811        -531.625          43.000  
G12  22339258.337   117393592.6333        729.006          31.000    22339264.370                3        569.436          26.000                                                                  
G24  21780311.491                3      -3634.497          24.000                                                                                                                                  
E33  23576207.338   123893796.538       -1385.735          45.000                                                                  
C16  36155290.795   188270074.309        -442.577          46.000    36155291.052   145582375.815        -342.531          43.000  
C58  40670697.751                3      -2836.376          27.000                                                                  
R16  21379512.649                3      -2999.609          23.000    21379498.708                3      -2333.471          14.000  
E21  26109890.151   137208440.271        1801.379          39.000    26109901.214   105133751.8681       1380.155          40.000  
C13                                                                  36235581.574   145905668.056         273.148          41.000  
R07                                                                  21235521.824                2        548.480          22.000  
J04                                                                  38759766.008   158714812.459         120.061          42.000  
> 2025 10 27 02 14 38.9990000  0 27                     
G18  21682765.930   113943702.428       -3359.769          46.000    21682768.289    88787301.190       -2617.523          41.000                                                                  
S29  36552713.347   192085821.384        -531.927          45.000  
J03  35644389.695   187312549.702        -700.775          41.000    35644395.154                3       -542.773          33.000  
J07  36148108.326   189959594.518        -531.481          39.000    36148107.771   148020452.056        -413.589          43.000  
G25  21788436.162   114499031.439        2099.341          43.000    21788444.458                        1638.179          35.000                                                                  
G23  19798334.677   104040955.375         -76.296          44.000    19798334.076    81070868.188         -59.780          43.000                                                                  
C08  36034923.071   187643292.516         241.022          44.000    36034916.779   145097674.538         186.279          39.000  
C09  36893885.945   192116138.276         -96.930          45.000    36893884.140   148556369.298         -75.227          43.000  
C06  35740251.069   186108857.658        -246.922          47.000    35740245.344   143911151.360        -191.237          44.000  
C37  23646586.228   123133982.415        2381.189          44.000                                                                  
C23  21744827.128   113231016.957          82.377          51.000                                                                  
C39  35626152.543   185514724.537        -597.455          47.000                                                                  
R21  22290879.674   119283008.3371      -4142.664          45.000    22290885.250                2      -3222.349          31.000  
R06  20978267.566                3       -605.302          14.000                                                                  
R10  21595793.485   115117731.4923       3532.127          41.000                                                                  
R09  19386442.083   103522606.013         826.835          49.000    19386439.244    80517508.535         644.671          43.000  
S37  36148102.721   189959556.223        -530.992          44.000  
G12  22339122.597                2        729.302          31.000    22339124.830                         566.894          27.000                                                                  
G24  21781002.859                3      -3637.908          30.000                                                                                                                                  
E33  23576471.745   123895182.586       -1385.513          46.000                                                                  
C16  36155375.758   188270517.355        -442.966          46.000    36155375.960   145582718.392        -342.172          39.000  
C58  40671243.768                3      -2838.683          31.000                                                                  
R16  21380081.612                3      -2997.074          21.000    21380062.786                3      -2340.936          14.000  
E21  26109548.098                        1803.426          39.000    26109557.750   105132371.703        1380.602          38.000  
C13                                                                  36235513.714   145905394.695         273.428          42.000  
R07                                                                  21235388.914                2        548.161          26.000  
J04                                                                  38759736.363   158714692.101         120.598          43.000  
> 2025 10 27 02 14 39.9990000  0 27                     
G18  21683405.104   113947061.500       -3359.872          44.000    21683407.555    88789918.597       -2617.167          40.000                                                                  
S29  36552814.702   192086353.590        -532.208          47.000  
J03  35644522.524   187313248.413        -697.858          41.000    35644526.943                        -546.460          41.000  
J07  36148209.326   189960125.119        -532.119          41.000    36148208.620   148020865.406        -411.526          38.000  
G25  21788036.606                        2098.225          45.000    21788044.735                        1638.161          32.000                                                                  
G23  19798349.508   104041032.913         -77.533          46.000    19798348.697    81070928.534         -60.334          44.000                                                                  
C08  36034876.759   187643051.691         240.939          44.000    36034870.580   145097488.318         186.189          43.000  
C09  36893904.666   192116235.617         -97.443          43.000    36893902.885   148556444.585         -75.577          44.000  
C06  35740298.976   186109105.254        -247.768          47.000    35740292.971   143911342.791        -191.366          45.000  
C37  23646128.804   123131600.611        2381.152          43.000                                                                  
C23  21744811.421   113230935.121          81.203          48.000                                                                  
C39  35626267.429   185515322.259        -597.980          47.000                                                                  
R21  22291656.845                3      -4139.087          28.000    22291655.725                3      -3220.784          30.000  
R06  20978377.033                3       -589.093          14.000                                                                  
R10  21595135.281   115114197.6632       3533.530          40.000                                                                  
R09  19386287.021   103521777.997         827.551          49.000    19386284.253    80516864.687         642.178          44.000  
S37  36148203.766   189960086.841        -531.774          44.000  
G12  22338984.553                2        725.984          37.000    22338987.752                3        563.888          26.000                                                                  
G24  21781694.572                2      -3637.692          31.000                                                                                                                                  
E33  23576735.251   123896568.822       -1386.308          47.000                                                                  
C16  36155460.510   188270960.122        -442.500          44.000    36155460.955   145583060.733        -342.357          44.000  
C58  40671789.482                3      -2838.471          29.000                                                                  
E21  26109205.135                        1804.442          39.000    26109215.055   105130990.527        1381.157          38.000  
C13                                                                  36235445.913   145905121.356         273.669          41.000  
R07                                                                  21235255.349                2        551.216          28.000  
R16                                                                  21380625.790                3      -2338.889          16.000  
J04                                                                  38759706.708   158714571.472         120.748          43.000  
> 2025 10 27 02 14 40.9990000  0 27                     
G18  21684044.299   113950420.418       -3359.082          44.000    21684046.728    88792535.891       -2617.092          42.000                                                                  
S29  36552915.871   192086885.410        -532.037          40.000  
J03  35644655.269   187313946.771        -695.599          41.000    35644659.833                1       -542.999          38.000  
J07  36148310.123   189960655.366        -529.095          35.000    36148309.421   148021278.598        -410.663          39.000  
G25  21787637.024                        2097.926          43.000    21787644.967                1       1638.550          35.000                                                                  
G23  19798364.285   104041110.913         -77.653          46.000    19798363.590    81070989.431         -61.075          43.000                                                                  
C08  36034830.595   187642811.035         240.907          44.000    36034824.384   145097302.163         186.222          41.000  
C09  36893923.313   192116332.688         -96.507          39.000    36893921.599   148556519.672         -74.619          42.000  
C06  35740346.172   186109352.603        -247.222          40.000    35740340.595   143911534.304        -191.108          43.000  
C37  23645671.419   123129218.541        2382.764          41.000                                                                  
C23  21744795.896   113230853.734          81.860          49.000                                                                  
C39  35626382.425   185515920.057        -597.150          49.000                                                                  
R21  22292431.356                2      -4140.019          36.000    22292429.262                2      -3220.919          30.000  
R06  20978484.905                3       -594.082          14.000                                                                  
R07  21235090.881                3        705.903          34.000    21235122.048                2        549.427          28.000  
R10  21594475.986                        3534.055          35.000                                                                  
R09  19386132.059   103520950.734         827.876          45.000    19386129.344    80516221.174         643.130          42.000  
S37  36148304.623   189960617.078        -528.447          38.000  
G12  22338843.529                3        729.030          33.000    22338852.688                3        566.885          26.000                                                                  
G24  21782389.411                3      -3637.822          27.000                                                                                                                                  
E33  23576999.137   123897955.322       -1386.183          44.000                                                                  
C16  36155545.539   188271402.850        -442.164          48.000    36155545.977   145583403.103        -341.925          44.000  
C58  40672332.070                2      -2837.982          34.000                                                                  
E21  26108862.234   137203033.573        1803.351          42.000    26108872.138   105129609.087        1381.941          39.000  
C13                                                                  36235378.127   145904848.345         273.043          41.000  
R16                                                                  21381188.637                3      -2334.679          19.000  
J04                                                                  38759677.111   158714450.835         120.686          43.000  
> 2025 10 27 02 14 41.9990000  0 26                     
G18  21684683.439   113953778.869       -3359.898          44.000    21684685.649    88795152.907       -2616.802          40.000                                                                  
S29  36553016.928   192087416.532        -531.994          46.000  
J03  35644788.019                        -696.661          42.000    35644793.320                3       -545.419          36.000  
J07  36148410.665                        -530.414          38.000    36148410.166   148021691.298        -413.030          41.000  
G25  21787237.331   114492731.896        2099.250          41.000    21787249.008                        1635.086          35.000                                                                  
G23  19798379.143   104041188.555         -77.812          47.000    19798378.417    81071049.887         -60.936          42.000                                                                  
C08  36034784.184   187642569.476         241.940          44.000    36034778.044   145097115.378         187.979          42.000  
C09  36893941.882   192116429.250         -96.550          44.000    36893940.185   148556594.309         -75.298          41.000  
C06  35740393.796   186109599.460        -246.893          46.000    35740387.869   143911725.155        -191.791          32.000  
C37  23645213.898   123126836.027        2381.921          46.000                                                                  
C23  21744780.150   113230771.930          80.648          49.000                                                                  
C39  35626497.124   185516517.151        -597.668          45.000                                                                  
R21  22293205.509                2      -4142.339          38.000    22293204.719                3      -3222.232          30.000  
R06  20978596.960                3       -595.301          12.000                                                                  
R07  21234965.748                2        706.875          38.000    21234987.948                3        551.405          32.000  
R09  19385977.134   103520123.346         827.029          47.000    19385974.412    80515577.640         643.882          41.000  
R16  21381125.550                3      -2678.203          27.000    21381752.191                3      -2340.883          20.000  
S37  36148405.281   189961146.546        -529.924          41.000  
G12  22338703.132                2        727.871          33.000    22338715.248                         564.889          27.000                                                                  
G24  21783079.882                3      -3637.178          24.000                                                                                                                                  
E33  23577262.235   123899341.355       -1386.572          44.000                                                                  
C16  36155630.942   188271845.039        -442.598          48.000    36155630.895   145583744.993        -341.589          44.000  
C58  40672875.874                2      -2834.888          34.000                                                                  
E21  26108519.043                        1801.695          41.000    26108529.236   105128227.104        1381.022          38.000  
C13                                                                  36235310.123   145904574.517         274.539          41.000  
J04                                                                  38759647.389   158714329.395         121.830          43.000  
> 2025 10 27 02 14 42.9990000  0 25                     
G18  21685322.506   113957137.469       -3358.486          43.000    21685324.845    88797770.017       -2616.547          39.000                                                                  
S29  36553118.066   192087947.481        -530.643          46.000  
J03  35644920.648                        -697.797          41.000    35644922.656   145959998.7041       -542.853          37.000  
J07  36148511.324                        -530.853          38.000    36148510.906   148022103.546        -409.124          39.000  
G25  21786837.597                        2099.781          44.000    21786845.999                        1635.310          35.000                                                                  
G23  19798393.963   104041266.263         -77.767          47.000    19798393.214    81071110.459         -61.227          43.000                                                                  
C08  36034737.791   187642327.653         241.810          44.000    36034731.643   145096928.370         186.281          41.000  
C09  36893960.486   192116525.744         -96.005          42.000    36893958.666   148556668.918         -74.497          39.000  
C06  35740441.595   186109846.241        -246.783          47.000    35740434.659   143911915.821        -191.060          36.000  
C37  23644756.378   123124453.429        2382.733          45.000                                                                  
C23  21744764.409   113230690.299          81.498          48.000                                                                  
C39  35626611.571   185517114.080        -597.089          44.000                                                                  
R21  22293979.399                3      -4135.437          31.000    22293979.504                2      -3220.648          28.000  
R06  20978712.976                3       -587.903          14.000                                                                  
R07  21234839.989   113671690.2573        706.740          42.000    21234855.371                2        547.910          32.000  
R09  19385822.305   103519296.431         827.411          46.000    19385819.597    80514934.452         643.128          41.000  
S37  36148505.975   189961675.806        -530.867          42.000  
G12  22338566.699                         726.709          40.000    22338576.146                1        565.800          27.000                                                                  
G24  21783776.348                3      -3626.799          23.000                                                                                                                                  
E33  23577526.313   123900727.812       -1386.595          45.000                                                                  
C16  36155716.003   188272286.972        -441.486          46.000    36155715.882   145584086.770        -341.770          46.000  
C58  40673418.021                2      -2834.434          36.000                                                                  
E21  26108175.786                        1805.317          37.000    26108185.927   105126844.869        1382.391          38.000  
C13                                                                  36235242.103   145904300.522         273.900          41.000  
J04                                                                  38759617.594   158714207.523         122.709          42.000  
> 2025 10 27 02 14 43.9990000  0 28                     
G18  21685961.708   113960496.223       -3356.756          41.000    21685963.984    88800387.204       -2616.542          41.000                                                                  
S29  36553219.091   192088478.323        -530.050          44.000  
J03  35645053.230   187316039.346        -697.272          42.000    35645055.461                        -544.135          39.000  
J07  36148611.924                        -529.357          41.000    36148611.459   148022515.618        -410.306          42.000  
G25  21786437.791                        2100.036          45.000    21786444.098    89211868.8021       1637.506          34.000                                                                  
G23  19798408.592   104041343.927         -77.061          47.000    19798408.002    81071170.909         -59.567          43.000                                                                  
C08  36034691.160   187642085.288         242.860          43.000    36034685.091   145096740.970         188.560          42.000  
C09  36893979.022   192116622.238         -95.731          42.000    36893977.211   148556743.540         -73.561          42.000  
C06  35740488.682   186110092.888        -244.269          39.000    35740481.901   143912106.571        -189.650          44.000  
C37  23644298.883   123122070.904        2383.563          41.000                                                                  
C23  21744748.784   113230608.667          81.278          48.000                                                                  
C39  35626726.165   185517710.692        -595.184          46.000                                                                  
R21  22294750.456                2      -4141.820          42.000    22294751.879                3      -3218.076          33.000  
R06  20978823.198                3       -592.723          15.000                                                                  
R07  21234710.251   113670982.7652        708.900          39.000    21234718.980                2        552.046          33.000  
R10  21592484.128                3       3533.920          37.000                                                                  
R09  19385667.590   103518469.740         826.796          47.000    19385664.769    80514291.530         643.107          42.000  
S37  36148606.574                        -529.450          45.000  
G12  22338425.589   117389221.0081        728.151          36.000    22338436.531                         567.544          28.000                                                                  
G24  21784476.705                3      -3629.997          22.000                                                                                                                                  
E33  23577790.157   123902114.489       -1385.739          46.000                                                                  
J04  38760036.402                3        448.617          26.000    38759587.682   158714085.195         123.399          43.000  
C16  36155800.822   188272728.675        -440.372          48.000    36155800.766   145584428.294        -340.638          43.000  
C58  40673961.143                2      -2833.340          36.000                                                                  
E26  25213280.585   132496683.6901      -3309.038          41.000                                                                  
E21  26107832.228                        1804.657          41.000    26107842.496   105125462.210        1383.088          40.000  
C13                                                                  36235173.982   145904026.136         274.907          41.000  
R16                                                                  21382879.830                3      -2332.903          17.000  
> 2025 10 27 02 14 44.9990000  0 29                     
G18  21686601.021   113963855.450       -3359.990          46.000    21686603.155    88803004.793       -2617.124          40.000                                                                  
S29  36553320.171   192089009.284        -529.762          45.000  
J03  35645185.877                        -696.808          43.000    35645191.724                        -541.736          39.000  
J07  36148712.505   189962771.412        -528.524          42.000    36148712.145   148022927.586        -412.494          43.000  
G25  21786038.093   114486430.375        2100.765          43.000    21786048.680                        1639.064          34.000                                                                  
G23  19798423.473   104041422.028         -77.692          47.000    19798422.851    81071231.769         -60.357          45.000                                                                  
C08  36034644.620   187641842.945         242.781          44.000    36034638.542   145096553.649         187.688          41.000  
C09  36893997.634   192116719.022         -95.996          39.000    36893995.802   148556818.269         -74.722          38.000  
C06  35740536.139   186110339.683        -245.962          46.000    35740529.392   143912297.438        -190.716          43.000  
C37  23643841.375   123119688.722        2381.995          42.000                                                                  
C23  21744733.103   113230527.342          80.557          49.000                                                                  
C39  35626840.941   185518307.609        -596.777          46.000                                                                  
R21  22295521.775                       -4144.952          33.000    22295526.382                2      -3218.628          33.000  
R06  20978935.967                3       -592.723          14.000                                                                  
R07  21234579.979   113670275.4352        708.007          44.000    21234584.718    88410334.5733        551.296          37.000  
R09  19385512.755   103517643.655         826.119          44.000    19385510.072    80513649.019         642.257          44.000  
S37  36148707.314   189962733.135        -528.552          44.000  
G12  22338286.870   117388493.447         727.455          40.000    22338297.420                         568.267          29.000                                                                  
G24  21785174.179                3      -3639.621          22.000                                                                                                                                  
E33  23578054.236   123903501.804       -1387.112          42.000                                                                  
C16  36155885.372   188273170.772        -441.149          44.000    36155885.613   145584770.258        -342.046          44.000  
C58  40674506.365   211802838.8041      -2833.897          37.000                                                                  
E26  25213909.866   132499993.505       -3310.217          42.000                                                                  
E27  26005651.095                3        370.715          25.000                                                                  
E21  26107488.300                        1805.334          40.000    26107499.252   105124079.544        1383.527          41.000  
E29  24285135.561   127619247.9131      -1275.638          44.000                                                                  
C13                                                                  36235105.882   145903751.777         274.677          41.000  
R16                                                                  21383440.399                3      -2332.903          15.000  
J04                                                                  38759557.710   158713962.659         123.633          43.000  
> 2025 10 27 02 14 45.9990000  0 27                     
G18  21687240.286   113967214.757       -3359.561          42.000    21687242.425    88805622.460       -2618.800          36.000                                                                  
S29  36553421.242   192089540.265        -531.103          44.000  
J03  35645318.473                        -696.979          41.000    35645325.084                        -541.150          35.000  
J07  36148812.856                        -525.852          37.000    36148812.618   148023339.359        -411.035          39.000  
G25  21785638.459   114484329.848        2101.328          44.000    21785648.991                1       1638.934          35.000                                                                  
G23  19798438.434   104041500.520         -78.719          47.000    19798437.711    81071292.875         -61.333          45.000                                                                  
C08  36034598.109   187641600.534         242.454          43.000    36034591.955   145096366.253         186.467          42.000  
C09  36894016.211   192116815.757         -97.068          41.000    36894014.434   148556893.162         -74.961          42.000  
C06  35740583.570   186110586.616        -246.271          47.000    35740576.795   143912488.370        -190.772          46.000  
C37  23643383.733   123117306.473        2383.240          42.000                                                                  
C23  21744717.562   113230446.453          82.322          47.000                                                                  
C39  35626955.270   185518904.484        -596.802          46.000                                                                  
R21  22296294.507   119311995.4501      -4139.960          48.000    22296296.864                2      -3220.347          35.000  
R07  21234448.516   113669567.7192        707.764          45.000    21234449.551    88409784.1702        550.348          40.000  
R10  21591155.670                        3535.843          38.000                                                                  
R09  19385358.139   103516818.234         825.094          47.000    19385355.552    80513007.045         640.162          44.000  
R16  21384118.886                3      -3005.110          29.000    21384004.877                3      -2343.892          16.000  
S37  36148807.874                        -526.683          41.000  
G12  22338149.331   117387765.813         728.157          40.000    22338154.346    91471033.1231        568.080          32.000                                                                  
E33  23578317.985   123904889.518       -1388.146          45.000                                                                  
J04  38760948.093                3        471.672          23.000    38759527.585   158713839.887         123.043          43.000  
C16  36155970.190   188273612.843        -442.028          41.000    36155970.498   145585111.958        -341.559          44.000  
C58  40675050.320   211805672.194       -2833.706          34.000                                                                  
E26  25214540.950   132503303.161       -3310.201          40.000                                                                  
E21  26107145.019                        1805.168          39.000    26107155.834   105122696.523        1383.650          38.000  
E29  24285378.956   127620524.470       -1276.846          43.000                                                                  
C13                                                                  36235037.723   145903477.413         273.668          39.000  
> 2025 10 27 02 14 46.9990000  0 28                     
G18  21687879.546   113970574.056       -3360.251          40.000    21687881.603    88808240.092       -2617.447          36.000                                                                  
S29  36553522.234   192090070.828        -530.367          44.000  
J03  35645451.053                        -696.283          38.000    35645458.299                        -543.079          40.000  
J07  36148913.307   189963828.012        -528.792          39.000    36148913.047   148023750.921        -411.460          42.000  
G25  21785238.869   114482229.324        2101.288          41.000    21785249.302                3       1639.209          39.000                                                                  
G23  19798453.322   104041579.098         -78.770          46.000    19798452.634    81071354.149         -61.561          44.000                                                                  
C08  36034551.541   187641357.948         242.286          44.000    36034545.329   145096178.546         187.357          44.000  
C09  36894034.779   192116912.376         -97.179          44.000    36894033.008   148556967.879         -75.401          40.000  
C06  35740630.801   186110833.375        -246.014          48.000    35740624.248   143912679.272        -191.375          43.000  
C37  23642926.125   123114924.293        2381.879          44.000                                                                  
C23  21744702.176   113230365.780          79.365          50.000                                                                  
C39  35627069.837   185519501.266        -596.777          48.000                                                                  
R21  22297069.799   119316136.306       -4139.919          45.000    22297069.321    92801427.6673      -3221.274          38.000  
R07  21234316.406   113668859.560         708.778          47.000    21234316.585                         552.813          41.000  
R10  21590494.362                2       3533.251          37.000                                                                  
R09  19385203.548   103515993.214         824.358          50.000    19385201.070    80512365.284         642.501          41.000  
S37  36148908.502   189963789.731        -528.621          44.000  
G12  22338011.143   117387038.344         727.242          43.000    22338013.101    91470466.333         566.875          37.000                                                                  
E33  23578581.955   123906277.333       -1387.626          45.000                                                                  
C16  36156054.951   188274054.707        -442.407          45.000    36156055.373   145585453.711        -341.749          44.000  
C58  40675594.963                       -2832.232          30.000                                                                  
E26  25215170.425                       -3310.355          43.000                                                                  
E27  26005507.678   136659864.6071        363.819          45.000                                                                  
E21  26106801.741                        1804.598          36.000    26106812.489   105121313.435        1382.850          36.000  
E29  24285620.687   127621800.644       -1275.541          42.000                                                                  
C13                                                                  36234969.547   145903202.840         273.438          40.000  
R16                                                                  21384569.191                3      -2341.592          18.000  
J04                                                                  38759497.392   158713716.806         123.683          43.000  
> 2025 10 27 02 14 47.9990000  0 28                     
G18  21688518.947   113973933.958       -3360.771          44.000    21688521.028    88810858.191       -2619.338          38.000                                                                  
S29  36553623.165   192090601.387        -530.692          46.000  
J03  35645583.716                        -698.547          42.000    35645590.145                1       -545.465          36.000  
J07  36149013.724   189964355.931        -526.854          37.000    36149013.399   148024162.234        -410.884          39.000  
G25  21784839.215   114480129.005        2099.500          43.000    21784848.406                        1635.718          34.000                                                                  
G23  19798468.417   104041657.679         -78.612          47.000    19798467.684    81071415.421         -61.384          45.000                                                                  
C08  36034504.672   187641114.685         243.451          47.000    36034498.632   145095990.430         188.495          45.000  
C09  36894053.391   192117009.161         -97.203          43.000    36894051.545   148557042.610         -74.681          42.000  
C06  35740678.213   186111080.307        -248.295          40.000    35740671.679   143912870.029        -191.279          46.000  
C37  23642468.558   123112542.445        2382.251          43.000                                                                  
C23  21744686.603   113230285.253          80.462          49.000                                                                  
C39  35627184.496   185520097.782        -596.777          47.000                                                                  
R21  22297843.018   119320277.773       -4141.629          45.000    22297844.193    92804648.7192      -3222.276          33.000  
R07  21234184.206   113668150.628         709.417          42.000    21234184.049                         552.008          36.000  
R10  21589831.646                2       3534.522          38.000                                                                  
R09  19385049.068   103515168.736         822.928          45.000    19385046.675    80511724.003         640.922          39.000  
S37  36149008.969   189964317.671        -527.059          41.000  
G12  22337872.484   117386311.007         727.360          45.000    22337874.552    91469899.505         567.123          39.000                                                                  
E33  23578846.903   123907665.485       -1388.226          44.000                                                                  
C16  36156139.768   188274496.499        -441.249          46.000    36156140.244   145585795.348        -341.974          43.000  
C58  40676142.294                3      -2832.572          30.000                                                                  
E26  25215800.440   132509922.463       -3311.147          42.000                                                                  
E27  26005438.404   136659500.338         364.436          42.000                                                                  
E21  26106461.277                3       1801.159          31.000    26106468.971   105119930.420        1382.139          33.000  
E29  24285863.204   127623076.058       -1274.568          39.000                                                                  
C13                                                                  36234901.251   145902927.710         275.647          42.000  
R16                                                                  21385134.989                3      -2342.402          18.000  
J04                                                                  38759467.220   158713593.225         123.667          41.000  
> 2025 10 27 02 14 48.9990000  0 28                     
G18  21689158.369   113977293.942       -3360.315          43.000    21689160.489    88813476.360       -2617.813          40.000                                                                  
S29  36553724.032   192091131.849        -531.168          44.000  
J03  35645716.418                2       -698.566          42.000    35645725.005                1       -545.099          41.000  
J07  36149114.168   189964884.069        -528.197          39.000    36149113.881   148024573.856        -411.467          39.000  
G25  21784439.495   114478029.032        2099.457          40.000    21784448.675                        1636.991          33.000                                                                  
G23  19798483.488   104041736.895         -79.464          47.000    19798482.764    81071477.116         -62.316          46.000                                                                  
C08  36034458.043   187640871.643         243.309          46.000    36034452.004   145095802.503         188.129          43.000  
C09  36894071.932   192117105.930         -97.031          43.000    36894070.173   148557117.512         -75.170          43.000  
C06  35740725.392   186111327.011        -247.670          45.000    35740719.150   143913060.949        -191.941          43.000  
C37  23642011.158   123110160.817        2380.719          46.000                                                                  
C23  21744671.338   113230205.501          78.846          50.000                                                                  
C39  35627298.922   185520694.367        -597.455          46.000                                                                  
R21  22298617.585   119324418.866       -4142.587          48.000    22298617.857                       -3222.561          30.000  
R07  21234051.870   113667441.561         708.350          40.000    21234051.643                         549.089          29.000  
R10  21589169.042                        3531.779          40.000                                                                  
R09  19384894.860   103514345.172         823.383          50.000    19384892.416    80511083.444         642.686          36.000  
S37  36149109.504   189964845.830        -528.792          42.000  
G12  22337734.279   117385584.510         725.092          43.000    22337737.097    91469333.433         565.112          38.000                                                                  
E33  23579110.896   123909054.008       -1390.159          42.000                                                                  
C16  36156224.720   188274938.425        -442.410          47.000    36156225.143   145586137.077        -342.225          44.000  
C58  40676688.179                3      -2838.896          22.000                                                                  
E26  25216430.585   132513232.429       -3311.650          39.000                                                                  
E27  26005369.559   136659136.674         365.156          36.000    26005380.579   104712890.954         278.590          42.000  
E21  26106150.550                        1798.132          30.000    26106125.567                        1380.215          30.000  
E29  24286106.535   127624351.581       -1275.866          39.000                                                                  
C13                                                                  36234832.966   145902652.691         274.635          43.000  
R16                                                                  21385699.674                3      -2342.402          15.000  
J04                                                                  38759436.936   158713469.755         124.063          37.000  
> 2025 10 27 02 14 49.9990000  0 29                     
G18  21689798.041   113980655.358       -3361.741          41.000    21689800.090    88816095.468       -2617.883          40.000                                                                  
S29  36553825.091   192091663.198        -531.261          44.000  
J03  35645849.263                2       -696.252          41.000    35645855.866                3       -545.182          33.000  
J07  36149214.784   189965412.738        -528.076          38.000    36149214.487   148024985.694        -410.139          41.000  
G25  21784039.894                        2102.329          37.000    21784054.894                3       1633.889          30.000                                                                  
G23  19798498.811   104041816.921         -79.823          47.000    19798498.067    81071539.481         -63.589          44.000                                                                  
C08  36034411.382   187640628.995         242.362          41.000    36034405.401   145095614.867         188.403          42.000  
C09  36894090.721   192117203.751         -97.055          44.000    36894088.933   148557193.113         -74.563          42.000  
C06  35740772.914   186111574.804        -247.886          45.000    35740766.731   143913252.436        -190.875          42.000  
C37  23641553.996   123107780.145        2382.959          44.000                                                                  
C23  21744656.124   113230126.663          77.507          49.000                                                                  
C39  35627413.718   185521291.811        -597.595          47.000                                                                  
R21  22299391.191   119328561.134       -4141.146          46.000    22299391.977    92811091.321       -3220.498          34.000  
R07  21233919.554                         705.188          36.000    21233920.526                3        548.784          30.000  
R10  21588505.878                        3532.383          36.000                                                                  
R09  19384740.966                         821.968          51.000    19384738.523    80510443.970         637.968          43.000  
S37  36149210.074   189965374.466        -528.279          41.000  
G12  22337596.158   117384858.579         724.118          39.000    22337600.858    91468767.751         565.341          32.000                                                                  
G24  21788611.394                3      -3635.158          23.000                                                                                                                                  
E33  23579375.635   123910443.755       -1390.714          42.000                                                                  
C16  36156309.664   188275381.233        -442.856          46.000    36156310.215   145586479.426        -342.631          44.000  
C58  40677238.554                3      -2826.833          20.000                                                                  
E26  25217060.414   132516543.301       -3310.391          42.000                                                                  
E27  26005297.683                3        359.112          33.000    26005311.103                         278.615          35.000  
E21  26105826.680                        1797.987          37.000    26105783.993                1       1380.710          24.000  
E29  24286349.700                       -1276.771          33.000                                                                  
C13                                                                  36234764.800   145902377.932         274.016          40.000  
R16                                                                  21386265.514                3      -2334.764          15.000  
J04                                                                  38759406.757   158713346.420         122.718          39.000  
> 2025 10 27 02 14 50.9990000  0 29                     
G18  21690437.867   113984017.557       -3363.246          42.000    21690440.047    88818715.422       -2620.184          39.000                                                                  
S29  36553926.247   192092194.916        -532.610          44.000  
J03  35645982.295                2       -700.696          35.000    35645987.920   145964360.6981       -544.379          33.000  
J07  36149315.435   189965941.747        -529.330          40.000    36149315.175   148025397.946        -413.013          41.000  
G25  21783640.017                3       2099.805          34.000    21783663.164                        1634.094          29.000                                                                  
G23  19798514.169   104041897.283         -80.761          47.000    19798513.440    81071602.065         -63.169          45.000                                                                  
C08  36034364.677   187640386.066         243.127          44.000    36034358.707   145095427.023         187.833          42.000  
C09  36894109.550   192117302.150         -99.175          44.000    36894107.819   148557269.221         -77.018          43.000  
C06  35740820.371   186111822.844        -248.223          43.000    35740814.424   143913444.236        -191.813          44.000  
C37  23641097.075   123105400.567        2378.577          43.000                                                                  
C23  21744641.022   113230048.399          76.761          50.000                                                                  
C39  35627528.406   185521889.263        -597.925          47.000                                                                  
R21  22300165.270   119332704.381       -4144.314          46.000    22300166.238    92814313.902       -3223.162          34.000  
R07  21233787.009                3        708.499          36.000    21233786.674                3        553.630          29.000  
R10  21587837.706                3       3512.931          31.000                                                                  
R09  19384587.085   103512701.662         819.806          50.000    19384584.749    80509805.220         637.068          44.000  
S37  36149310.754   189965903.476        -529.293          43.000  
G12  22337458.672                         723.516          42.000    22337461.872                         564.761          25.000                                                                  
G24  21789319.815                3      -3635.158          21.000    21789323.319                3      -2843.222          15.000                                                                  
E33  23579639.768   123911834.029       -1391.008          43.000                                                                  
C16  36156394.650   188275824.164        -443.492          45.000    36156395.257   145586821.959        -343.188          44.000  
C58  40677787.880                3      -2852.853          23.000                                                                  
E26  25217690.725   132519855.167       -3312.444          40.000                                                                  
E27  26005235.589                         360.238          32.000    26005242.779                3        277.982          26.000  
E21  26105476.644                        1798.263          34.000    26105439.924                3       1381.849          24.000  
E29  24286595.359                1      -1274.851          35.000                                                                  
C13                                                                  36234696.514   145902102.845         275.465          37.000  
R16                                                                  21386827.823                3      -2336.174          17.000  
J04                                                                  38759376.513   158713222.811         123.505          42.000  
> 2025 10 27 02 14 51.9990000  0 29                     
G18  21691077.844   113987380.865       -3364.585          41.000    21691080.203    88821336.238       -2621.772          40.000                                                                  
S29  36554027.561   192092727.104        -531.869          45.000  
J03  35646115.511                2       -697.357          28.000    35646125.928                3       -546.684          33.000  
J07  36149416.239                        -531.246          38.000    36149415.892   148025810.685        -414.021          44.000  
G25  21783252.377                2       2096.764          32.000    21783271.657                        1628.591          26.000                                                                  
G23  19798529.582   104041978.332         -80.937          47.000    19798528.843    81071665.158         -62.891          45.000                                                                  
C08  36034318.107   187640143.347         242.869          45.000    36034312.040   145095239.343         187.362          46.000  
C09  36894128.534   192117401.212         -99.745          44.000    36894126.841   148557345.825         -77.396          44.000  
C06  35740867.987   186112071.513        -249.503          43.000    35740862.145   143913636.553        -193.054          43.000  
C37  23640640.281   123103021.884        2378.229          45.000                                                                  
C23  21744626.084   113229971.081          76.709          49.000                                                                  
C39  35627643.290   185522487.184        -598.053          47.000                                                                  
R21  22300939.604   119336848.422       -4144.895          37.000    22300940.743    92817536.976       -3222.906          38.000  
R06  20978947.728                3       -901.556          23.000                                                                  
R07  21233654.535                2        708.197          36.000    21233653.858                2        556.139          28.000  
R09  19384433.435   103511881.606         819.844          47.000    19384431.163    80509167.406         637.217          40.000  
S37  36149411.552   189966433.074        -531.095          43.000  
G12  22337321.439                         718.099          30.000    22337326.258                3        563.659          25.000                                                                  
S28  36970694.439   194282309.8563       -529.466          45.000  
G24  21790026.541                3      -3635.158          24.000    21790013.709                3      -2841.762          19.000                                                                  
E33  23579904.716   123913225.240       -1392.135          43.000                                                                  
C13  36234626.331   188683207.4403        356.594          42.000    36234628.106   145901827.840         275.276          39.000  
C16  36156479.766   188276267.672        -443.950          45.000    36156480.368   145587164.881        -342.954          43.000  
E26  25218321.040                       -3315.840          34.000                                                                  
E21  26105155.461                3       1799.813          29.000    26105099.400                3       1378.854          23.000  
E29  24286835.040                       -1273.357          41.000                                                                  
E27                                                                  26005173.256                3        277.614          27.000  
R16                                                                  21387392.894                3      -2336.293          19.000  
J04                                                                  38759346.258   158713099.233         123.812          43.000  
> 2025 10 27 02 14 52.9990000  0 29                     
G18  21691718.002   113990744.980       -3365.380          45.000    21691720.353    88823957.577       -2622.130          41.000                                                                  
S29  36554128.843   192093259.553        -532.917          43.000  
J03  35646253.164                3       -701.044          32.000    35646259.659                        -546.405          29.000  
J07  36149517.013   189967001.054        -531.410          39.000    36149516.630   148026223.405        -414.216          43.000  
G25  21782866.860                2       2100.459          29.000    21782877.253                3       1632.371          27.000                                                                  
G23  19798545.043   104042059.437         -81.984          44.000    19798544.307    81071728.400         -64.037          45.000                                                                  
C08  36034271.349   187639900.070         242.998          45.000    36034265.273   145095051.169         187.822          45.000  
C09  36894147.606   192117500.751        -100.306          42.000    36894145.942   148557422.721         -77.551          45.000  
C06  35740915.659   186112320.430        -250.272          44.000    35740909.966   143913828.938        -193.315          42.000  
C37  23640183.584   123100644.047        2376.312          41.000                                                                  
C23  21744611.374   113229894.256          75.812          48.000                                                                  
C39  35627758.026   185523085.026        -598.553          47.000                                                                  
R21  22301714.114   119340993.227       -4145.999          44.000    22301715.314    92820760.619       -3224.220          36.000  
R07  21233521.770                2        710.411          36.000    21233521.571                3        554.815          33.000  
R09  19384280.003   103511062.317         818.292          48.000    19384277.755    80508530.117         635.854          40.000  
S37  36149512.351   189966962.782        -531.556          42.000  
G12  22337186.658                3        722.372          31.000    22337191.748                3        558.382          25.000                                                                  
S28  36970795.133   194282839.1632       -530.115          44.000  
E33  23580169.569   123914616.882       -1391.843          43.000                                                                  
C13  36234558.737   188682851.1582        356.677          48.000    36234559.673   145901552.251         275.796          44.000  
C16  36156564.932   188276711.343        -444.286          46.000    36156565.509   145587507.928        -343.748          45.000  
C58  40678877.768                2      -2837.134          24.000                                                                  
E26  25218951.973                       -3316.789          33.000                                                                  
E27  26005097.063                3        363.995          25.000    26005106.788                3        277.524          21.000  
E21  26104792.079                3       1798.796          28.000    26104755.885                3       1385.861          23.000  
E29  24287074.956   127629467.5491      -1273.284          46.000                                                                  
R16                                                                  21387958.331                3      -2328.892          18.000  
G24                                                                  21790705.233                3      -2831.847          21.000                                                                  
J04                                                                  38759315.910   158712975.179         123.579          40.000  
> 2025 10 27 02 14 53.9990000  0 29                     
G18  21692358.334   113994110.057       -3366.556          41.000    21692360.795    88826579.747       -2623.444          38.000                                                                  
S29  36554230.388   192093792.234        -532.274          43.000  
J03  35646388.660                3       -700.824          28.000    35646394.057                1       -548.553          23.000  
J07  36149617.987   189967531.393        -530.287          35.000    36149617.569   148026636.476        -413.667          41.000  
G25  21782475.325                2       2098.149          30.000    21782487.542                        1629.970          27.000                                                                  
G23  19798560.536   104042140.923         -81.156          45.000    19798559.806    81071791.906         -63.566          46.000                                                                  
C08  36034224.546   187639656.649         242.693          44.000    36034218.552   145094862.966         188.463          44.000  
C09  36894166.808   192117600.726        -100.276          42.000    36894165.081   148557500.049         -77.302          44.000  
C06  35740963.487   186112569.661        -249.547          43.000    35740957.886   143914021.729        -193.368          45.000  
C37  23639727.066   123098266.632        2377.771          33.000                                                                  
C23  21744596.753   113229818.173          76.301          49.000                                                                  
C39  35627872.829   185523683.015        -597.980          47.000                                                                  
R21  22302488.833   119345138.562       -4146.713          38.000    22302490.019    92823984.858       -3224.903          30.000  
R06  20980563.494                3       -915.155          27.000                                                                  
R07  21233392.526                3        715.870          36.000    21233387.150                2        555.597          34.000  
R09  19384126.829   103510244.143         818.211          42.000    19384124.540    80507893.783         636.715          37.000  
S37  36149613.336   189967493.114        -530.221          38.000  
G12  22337055.568                3        722.874          37.000    22337055.777                3        565.407          24.000                                                                  
S28  36970895.877   194283368.8502       -531.203          39.000  
E33  23580434.698   123916009.118       -1393.621          42.000                                                                  
C13  36234488.998   188682494.5772        356.658          46.000    36234491.211   145901276.494         276.097          45.000  
C16  36156650.411   188277155.264        -444.156          45.000    36156650.870   145587851.227        -343.995          43.000  
C58  40679419.202                3      -2830.410          24.000                                                                  
E27  26005031.346                3        358.422          26.000    26005040.636                         277.352          29.000  
E21  26104439.602                        1797.515          32.000    26104414.537                3       1382.095          24.000  
E29  24287317.161   127630740.965       -1273.093          48.000                                                                  
R16                                                                  21388521.907                3      -2354.531          17.000  
G24                                                                  21791396.309                3      -2830.465          21.000                                                                  
J04                                                                  38759285.550   158712851.113         125.145          39.000  
> 2025 10 27 02 14 54.9990000  0 29                     
G18  21692998.856   113997475.760       -3365.963          35.000    21693001.235    88829202.269       -2623.196          36.000                                                                  
S29  36554331.820   192094325.124        -532.456          44.000  
J03  35646526.638                3       -700.472          27.000    35646530.494                3       -542.338          21.000  
J07  36149719.180                        -528.757          34.000    36149718.483   148027049.474        -413.502          35.000  
G25  21782078.107                3       2096.749          31.000    21782088.804                1       1630.667          27.000                                                                  
G23  19798575.980   104042222.231         -81.694          47.000    19798575.274    81071855.265         -63.499          46.000                                                                  
C08  36034177.572   187639412.407         244.591          43.000    36034171.630   145094674.108         189.138          43.000  
C09  36894186.114   192117701.066        -100.732          44.000    36894184.336   148557577.596         -77.539          45.000  
C06  35741011.350   186112818.948        -249.083          43.000    35741005.801   143914214.486        -192.793          45.000  
C37  23639273.327                3       2379.053          31.000                                                                  
C23  21744582.132   113229741.923          74.739          48.000                                                                  
C39  35627987.522   185524280.727        -598.090          47.000                                                                  
R21  22303265.758                3      -4141.480          37.000    22303264.758                       -3225.529          34.000  
R09  19383973.784   103509426.447         817.419          46.000    19383971.432    80507257.650         634.899          36.000  
S37  36149714.316   189968023.215        -531.195          35.000  
G12  22336928.665                2        727.564          30.000    22336921.010                3        561.094          22.000                                                                  
S28  36970996.642   194283898.702        -529.028          43.000  
G24  21792090.763                3      -3634.994          26.000    21792087.811                3      -2822.181          20.000                                                                  
E33  23580699.598   123917401.720       -1392.384          44.000    23580703.452    94949720.671       -1066.302          46.000  
C13  36234421.239   188682137.1362        357.825          46.000    36234422.652   145901000.105         276.841          42.000  
C16  36156735.581   188277599.026        -443.105          46.000    36156736.150   145588194.375        -342.889          43.000  
C58  40679961.876                3      -2828.485          23.000                                                                  
E26  25220221.630                1      -3311.508          27.000                                                                  
E27  26004964.025                3        358.281          25.000    26004973.574                3        277.349          28.000  
E21  26104100.633                        1801.113          33.000    26104074.107                3       1380.020          23.000  
E29  24287558.809   127632013.209       -1271.320          44.000                                                                  
R07                                                                  21233257.334                2        553.600          33.000  
R16                                                                  21389086.180                3      -2350.395          16.000  
J04                                                                  38759255.040   158712726.273         124.353          40.000  
> 2025 10 27 02 14 55.9990000  0 29                     
G18  21693641.724                3      -3368.929          37.000    21693639.266                1      -2624.824          33.000                                                                  
S29  36554433.351   192094858.454        -534.965          42.000  
J03  35646668.946                2       -700.970          33.000    35646667.935                        -548.114          29.000  
J07  36149826.999                3       -531.436          35.000    36149820.047                        -416.852          29.000  
G25  21781694.021                2       2091.886          44.000    21781696.555                3       1627.951          27.000                                                                  
G23  19798591.514   104042304.222         -83.379          47.000    19798590.873    81071919.135         -64.650          43.000                                                                  
C08  36034130.774   187639168.357         243.411          46.000    36034124.775   145094485.365         188.099          44.000  
C09  36894205.540   192117802.025        -103.647          40.000    36894203.708   148557655.654         -79.114          43.000  
C06  35741059.243   186113068.778        -251.033          43.000    35741053.750   143914407.597        -192.902          43.000  
C37  23638817.368                3       2378.989          29.000                                                                  
C23  21744567.756   113229666.775          73.850          44.000                                                                  
C39  35628102.459   185524878.884        -598.920          49.000                                                                  
R21  22304042.888                3      -4144.337          41.000    22304042.249                3      -3223.560          31.000  
R06  20979642.875                3       -887.103          22.000                                                                  
R07  21233127.687                2        712.406          45.000    21233126.637                3        553.657          28.000  
R09  19383820.870   103508609.751         819.097          32.000    19383818.668    80506622.566         634.252          38.000  
R16  21389742.356                3      -3009.791          26.000    21389651.369                3      -2345.996          16.000  
S37  36149815.818                3       -533.746          37.000  
G12  22336789.595                3        722.958          27.000    22336784.934                3        562.378          23.000                                                                  
S28  36971097.590   194284428.904        -530.900          41.000  
G24  21792783.676                2      -3635.794          26.000    21792776.860                3      -2831.389          21.000                                                                  
E33  23580964.586   123918795.159       -1394.294          45.000    23580967.714    94950788.369       -1068.463          44.000  
J04  38761499.896                3        454.102          25.000    38759224.683   158712601.394         124.568          40.000  
C13  36234351.899   188681779.7282        357.629          45.000    36234354.040   145900723.716         276.111          44.000  
C16  36156820.867   188278043.375        -445.111          48.000    36156821.349   145588537.891        -343.835          44.000  
C58  40680512.294                3      -2838.692          23.000                                                                  
E27  26004898.306                3        360.919          31.000    26004903.910                         275.412          29.000  
E21  26103762.681                        1798.608          33.000    26103730.420                3       1377.478          23.000  
E29  24287802.171   127633285.301       -1271.586          48.000                                                                  
> 2025 10 27 02 14 56.9990000  0 29                     
G18  21694284.711                2      -3366.479          36.000    21694283.534                       -2626.942          30.000                                                                  
S29  36554534.916   192095391.849        -534.127          42.000  
J03  35646811.937                3       -704.881          29.000    35646804.476                        -549.786          28.000  
J07  36149941.082                2       -531.351          39.000    36149921.987   148027877.531        -413.429          41.000  
G25  21781292.592   114461481.0113       2091.076          30.000    21781292.539                        1628.057          32.000                                                                  
G23  19798607.202   104042386.526         -82.436          47.000    19798606.608    81071983.305         -64.850          44.000                                                                  
C08  36034083.844   187638924.114         243.337          46.000    36034077.863   145094296.483         189.001          41.000  
C09  36894225.055   192117903.216        -101.794          41.000    36894223.211   148557733.947         -78.336          42.000  
C06  35741107.138   186113318.781        -251.633          43.000    35741101.751   143914600.965        -193.673          42.000  
C37  23638361.792                2       2377.972          29.000                                                                  
C23  21744553.623   113229592.073          75.223          44.000                                                                  
C39  35628217.301   185525477.031        -597.668          45.000                                                                  
R21  22304819.620                2      -4144.181          34.000    22304817.477                3      -3230.365          25.000  
R07  21232993.412                3        712.476          40.000    21232993.599                2        557.140          34.000  
R10  21585432.425                3       3635.380          28.000                                                                  
R09  19383668.885   103507794.707         814.689          40.000    19383666.416    80505989.164         633.364          29.000  
S37  36149917.252                2       -531.439          42.000  
S28  36971198.530   194284959.242        -531.671          40.000  
E33  23581229.814   123920188.903       -1393.773          45.000    23581233.862    94951856.388       -1068.226          45.000  
C13  36234283.392   188681421.9132        358.024          48.000    36234285.300   145900447.069         277.316          41.000  
C16  36156906.339   188278487.750        -444.369          46.000    36156906.664   145588881.562        -344.020          41.000  
C58  40681076.905                3      -2843.036          23.000                                                                  
E21  26103410.937   137174399.1231       1797.924          39.000    26103387.154                3       1381.865          21.000  
E29  24288044.675   127634556.910       -1270.829          49.000                                                                  
E27                                                                  26004838.103                3        273.607          27.000  
G12                                                                  22336648.021                3        559.172          23.000                                                                  
R16                                                                  21390215.867                3      -2343.206          16.000  
G24                                                                  21793468.154                3      -2829.266          21.000                                                                  
J04                                                                  38759194.112   158712476.421         124.644          41.000  
> 2025 10 27 02 14 57.9990000  0 27                     
G18  21694922.119                2      -3369.604          32.000    21694925.575                       -2623.645          30.000                                                                  
S29  36554636.468   192095924.930        -533.175          45.000  
J03  35646947.548                2       -704.901          33.000    35646938.763                3       -546.169          26.000  
J07  36150039.054   189969685.5803       -530.253          37.000    36150023.526   148028291.479        -414.734          36.000  
G25  21780899.762                2       2092.375          41.000    21780893.288                1       1630.754          27.000                                                                  
G23  19798622.865   104042469.329         -81.950          47.000    19798622.386    81072047.829         -65.111          43.000                                                                  
C08  36034036.988   187638679.955         244.117          46.000    36034031.011   145094107.691         188.304          43.000  
C09  36894244.476   192118004.404        -100.406          43.000    36894242.567   148557812.220         -77.995          45.000  
C06  35741155.038   186113568.730        -249.562          44.000    35741149.753   143914794.251        -193.382          41.000  
C23  21744540.054   113229518.498          73.904          46.000                                                                  
C39  35628332.052   185526075.161        -597.803          48.000                                                                  
R07  21232863.006                2        715.173          43.000    21232858.847                2        555.645          32.000  
R10  21584690.022                3       3635.380          28.000                                                                  
R09  19383517.049   103506980.703         814.303          40.000    19383514.219    80505355.863         632.118          36.000  
S37  36150018.329   189969626.3113       -530.491          39.000  
S28  36971299.281   194285489.113        -529.940          44.000  
E33  23581494.735   123921582.940       -1395.279          43.000    23581498.949    94952924.522       -1068.528          46.000  
C13  36234214.649   188681063.5701        357.455          47.000    36234216.649   145900170.348         276.759          43.000  
C16  36156991.580   188278932.236        -444.707          46.000    36156992.054   145589225.258        -343.467          44.000  
E27  26004772.622                         358.582          27.000                                                                  
E21  26103082.405   137172600.025        1798.383          35.000    26103046.201                3       1380.073          23.000  
E29  24288287.351   127635828.383       -1271.620          47.000                                                                  
G12                                                                  22336514.362                3        567.010          24.000                                                                  
R21                                                                  22305591.595                3      -3225.891          25.000  
R16                                                                  21390782.151                3      -2343.811          17.000  
G24                                                                  21794159.782                3      -2831.970          21.000                                                                  
J04                                                                  38759163.731   158712351.569         124.588          40.000  
> 2025 10 27 02 14 58.9990000  0 27                     
G18  21695562.145                3      -3363.682          36.000    21695565.527                       -2626.043          29.000                                                                  
S29  36554737.958   192096457.867        -532.566          43.000  
J03  35647082.301                3       -704.167          28.000    35647075.080                3       -546.279          25.000  
J07  36150140.150                2       -530.699          30.000    36150124.969                        -414.348          29.000  
G25  21780503.287                2       2093.334          35.000    21780496.680                        1631.422          35.000                                                                  
G23  19798638.745   104042552.295         -83.657          46.000    19798638.117    81072112.450         -65.246          44.000                                                                  
C08  36033989.983   187638435.356         244.459          44.000    36033984.110   145093918.586         188.221          42.000  
C09  36894263.947   192118105.572         -99.861          42.000    36894262.047   148557890.410         -77.930          44.000  
C06  35741203.121   186113818.668        -249.060          48.000    35741197.802   143914987.494        -192.900          41.000  
C23  21744525.549   113229444.738          73.081          46.000                                                                  
C39  35628446.974   185526673.147        -597.955          49.000                                                                  
R07  21232729.058   113660446.0231        714.563          39.000    21232725.751                3        556.832          31.000  
R09  19383364.957   103506166.725         812.385          44.000    19383362.148    80504722.619         633.362          38.000  
R16  21391430.075                3      -3029.264          25.000    21391348.008                3      -2344.300          18.000  
S37  36150119.599   189970157.0022       -531.017          35.000  
G12  22336383.599                3        723.708          27.000    22336380.139                3        576.729          23.000                                                                  
S28  36971400.057   194286018.872        -528.938          43.000  
E33  23581760.290   123922977.092       -1393.841          45.000    23581764.413    94953992.726       -1067.977          46.000  
C13  36234145.817   188680705.171         358.286          49.000    36234147.713   145899893.194         277.046          42.000  
C16  36157076.996   188279376.552        -444.183          50.000    36157077.345   145589568.844        -343.373          45.000  
E26  25222758.623                       -3315.015          27.000                                                                  
E27  26004698.056                3        358.081          27.000    26004699.334                3        273.622          30.000  
E21  26102745.371   137170800.715        1799.817          34.000    26102704.068                3       1381.451          22.000  
E29  24288528.505   127637099.198       -1271.312          46.000                                                                  
R21                                                                  22306363.590                3      -3221.950          30.000  
G24                                                                  21794852.089                3      -2829.334          20.000                                                                  
J04                                                                  38759133.098   158712226.153         125.326          41.000  
> 2025 10 27 02 14 59.9990000  0 26                     
G18  21696207.361                3      -3368.598          29.000    21696209.524                1      -2623.899          30.000                                                                  
S29  36554839.383   192096990.786        -534.141          42.000  
J03  35647209.307                3       -711.947          26.000    35647206.708                3       -544.128          25.000  
G25  21780108.363                3       2090.663          38.000    21780109.824                        1627.579          31.000                                                                  
G23  19798654.550   104042635.688         -82.747          46.000    19798653.844    81072177.459         -65.132          44.000                                                                  
C08  36033942.895   187638190.749         243.966          43.000    36033937.229   145093729.451         189.536          44.000  
C09  36894283.424   192118206.823        -100.727          41.000    36894281.503   148557968.815         -78.521          44.000  
C06  35741251.124   186114068.675        -249.989          46.000    35741245.845   143915180.782        -193.031          43.000  
C23  21744511.834   113229371.504          73.484          46.000                                                                  
C39  35628562.012   185527271.182        -598.126          48.000                                                                  
R07  21232595.026                         713.888          41.000    21232590.113                2        555.089          32.000  
R09  19383212.839   103505353.350         815.388          39.000    19383210.163    80504090.146         632.868          34.000  
G12  22336249.522                2        725.801          33.000    22336250.037                3        561.682          29.000                                                                  
S28  36971500.774   194286548.680        -530.164          45.000  
E33  23582026.053   123924371.599       -1394.801          45.000    23582029.872    94955061.314       -1069.151          44.000  
C13  36234076.854   188680346.673         358.989          48.000    36234078.914   145899616.004         276.832          44.000  
C16  36157162.254   188279820.986        -444.441          45.000    36157162.692   145589912.457        -343.759          44.000  
C58  40682723.544                3      -2831.236          23.000                                                                  
E27  26004630.930                3        355.907          27.000    26004629.612                         275.832          36.000  
E21  26102392.272                1       1797.786          36.000    26102362.598                3       1376.402          30.000  
E29  24288770.604   127638369.835       -1270.703          45.000                                                                  
J07                                                                  36150226.047                        -414.218          36.000  
R21                                                                  22307142.750                3      -3230.604          23.000  
R16                                                                  21391914.956                3      -2346.487          18.000  
G24                                                                  21795545.167                3      -2849.329          19.000                                                                  
J04                                                                  38759102.358   158712100.670         125.646          40.000  
> 2025 10 27 02 15 00.9990000  0 28                     
G18  21696848.868                2      -3368.442          35.000    21696851.169                       -2620.909          33.000                                                                  
S29  36554940.921   192097524.215        -535.005          42.000  
J03  35647346.481                2       -700.397          32.000    35647336.947                        -546.216          26.000  
G23  19798670.398   104042719.812         -84.216          41.000    19798669.901    81072243.021         -66.439          45.000                                                                  
C08  36033896.163   187637946.385         244.353          43.000    36033890.342   145093540.470         188.068          41.000  
C09  36894302.979   192118308.810        -101.587          39.000    36894301.147   148558047.580         -79.175          44.000  
C06  35741299.182   186114319.207        -250.614          44.000    35741293.970   143915374.518        -193.898          43.000  
C37  23636542.637                3       2373.663          35.000                                                                  
C23  21744497.999   113229299.369          72.909          42.000                                                                  
C39  35628676.829   185527869.606        -598.865          47.000                                                                  
R07  21232461.362                         715.729          40.000    21232457.304    88401455.0981        555.687          39.000  
R10  21582614.916                3       3635.380          22.000                                                                  
R09  19383060.787   103504541.310         812.175          42.000    19383058.270    80503458.510         629.838          39.000  
G12  22336109.829                3        717.348          29.000    22336110.345                         562.311          22.000                                                                  
S28  36971601.627   194287078.784        -529.707          43.000  
G24  21796246.924                3      -3637.451          25.000    21796237.057                3      -2830.465          18.000                                                                  
E33  23582291.324   123925766.967       -1396.399          42.000    23582295.432    94956130.420       -1069.628          44.000  
J04  38761580.376                3        450.664          26.000    38759071.686   158711975.376         124.473          42.000  
C13  36234008.027   188679988.392         357.511          48.000    36234010.100   145899338.925         276.932          40.000  
C16  36157247.629   188280265.887        -445.305          45.000    36157248.091   145590256.517        -344.617          44.000  
E26  25224033.156                       -3317.450          24.000                                                                  
E27  26004565.259                         361.037          27.000    26004558.894                1        276.608          24.000  
E21  26102043.314                3       1796.363          26.000    26102019.388                3       1390.969          21.000  
E29  24289012.499   127639640.585       -1271.546          45.000                                                                  
J07                                                                  36150327.008   148029533.078        -413.220          33.000  
G25                                                                  21779711.129                1       1628.122          24.000                                                                  
R21                                                                  22307920.456                3      -3227.617          25.000  
R16                                                                  21392479.577                3      -2349.795          18.000  
> 2025 10 27 02 15 01.9990000  0 28                     
G18  21697488.749                3      -3374.121          34.000    21697492.280                3      -2625.551          29.000                                                                  
S29  36555042.445   192098057.838        -534.153          44.000  
J03  35647476.125                3       -701.508          28.000    35647474.099                3       -538.331          30.000  
J07  36150440.021   189971843.8043       -530.590          38.000    36150431.347                1       -410.213          28.000  
G25  21779306.525                3       2100.942          29.000    21779313.981                3       1630.586          31.000                                                                  
G23  19798686.649   104042804.515         -84.290          46.000    19798686.060    81072309.032         -66.298          43.000                                                                  
C08  36033849.187   187637702.144         244.993          45.000    36033843.515   145093351.589         188.475          45.000  
C09  36894322.613   192118411.208        -101.792          41.000    36894320.848   148558126.748         -78.536          44.000  
C06  35741347.212   186114570.128        -251.058          44.000    35741342.168   143915568.598        -194.271          44.000  
C37  23636081.763                2       2371.063          32.000                                                                  
C23  21744483.983   113229227.905          71.744          50.000                                                                  
C39  35628791.827   185528468.421        -598.895          47.000                                                                  
R21  22308698.942                3      -4131.128          31.000    22308698.756                3      -3221.071          25.000  
R07  21232326.599                3        716.504          40.000    21232323.480    88400900.099         554.138          36.000  
R10  21581928.696                3       3635.380          21.000                                                                  
R09  19382908.938   103503730.181         811.288          46.000    19382906.396    80502827.634         629.982          40.000  
G12  22335969.669                3        716.475          40.000    22335973.351                3        562.058          30.000                                                                  
S28  36971702.583   194287609.295        -530.863          43.000  
E33  23582557.426   123927163.048       -1396.677          47.000    23582561.121    94957200.205       -1070.577          42.000  
J04  38761515.963                3        450.664          25.000    38759041.011   158711849.961         126.215          37.000  
C13  36233939.263   188679630.252         358.657          48.000    36233941.409   145899062.015         277.433          44.000  
C16  36157333.167   188280711.185        -445.482          49.000    36157333.670   145590600.823        -343.706          43.000  
E26  25224647.744                3      -3316.281          27.000                                                                  
E27  26004480.388                         359.762          35.000    26004493.403                3        283.147          25.000  
E21  26101724.516                3       1801.521          31.000    26101679.725                3       1383.821          23.000  
E29  24289254.190   127640911.263       -1270.992          48.000                                                                  
R16                                                                  21393047.150                3      -2347.517          17.000  
G24                                                                  21796929.388                3      -2836.299          16.000                                                                  
> 2025 10 27 02 15 02.9990000  0 29                     
G18  21698129.194                2      -3368.728          37.000    21698135.010                       -2627.473          32.000                                                                  
S29  36555143.881   192098590.887        -533.241          46.000  
J03  35647610.972                2       -702.789          29.000    35647610.511                3       -548.900          26.000  
J07  36150529.891   189972315.8122       -531.779          36.000    36150535.638   148030386.7531       -414.647          42.000  
G25  21778901.805                2       2092.112          36.000    21778916.376                        1629.660          26.000                                                                  
G23  19798703.025   104042889.249         -85.804          48.000    19798702.283    81072375.068         -67.498          42.000                                                                  
C08  36033802.245   187637457.492         245.236          43.000    36033796.638   145093162.442         188.540          45.000  
C09  36894342.232   192118513.130        -102.325          43.000    36894340.456   148558205.564         -78.244          39.000  
C06  35741395.399   186114820.654        -250.644          43.000    35741390.320   143915762.301        -194.336          41.000  
C37  23635628.009                3       2374.848          29.000                                                                  
C23  21744470.225   113229156.597          70.163          45.000                                                                  
C39  35628906.629   185529066.732        -599.072          47.000                                                                  
R10  21581209.029                3       3635.380          20.000                                                                  
R09  19382756.882   103502919.680         809.185          46.000    19382754.609    80502197.127         629.503          41.000  
G12  22335833.497                2        715.571          36.000    22335836.263                3        558.552          22.000                                                                  
S28  36971803.417   194288139.184        -530.441          46.000  
E33  23582822.911   123928558.872       -1396.452          46.000    23582826.656    94958269.697       -1069.606          45.000  
C13  36233870.299   188679271.464         358.126          45.000    36233872.470   145898784.616         277.639          41.000  
C16  36157418.538   188281156.026        -445.730          48.000    36157419.084   145590944.754        -344.708          43.000  
C58  40684362.826                3      -2833.652          22.000                                                                  
E26  25225269.590                       -3316.720          27.000                                                                  
E27  26004425.157                3        355.899          27.000    26004426.109                3        271.474          26.000  
E21  26101378.190                        1798.815          37.000    26101339.907                3       1378.281          24.000  
E29  24289495.982   127642181.317       -1269.763          46.000                                                                  
R21                                                                  22309474.152                3      -3228.836          27.000  
R07                                                                  21232191.774                         554.017          32.000  
R16                                                                  21393611.873                3      -2344.685          18.000  
G24                                                                  21797621.859                3      -2840.154          15.000                                                                  
J04                                                                  38759010.352   158711724.209         124.348          43.000  
> 2025 10 27 02 15 03.9990000  0 28                     
G18  21698770.306                2      -3370.014          38.000    21698772.533                       -2624.137          37.000                                                                  
S29  36555245.419   192099124.028        -533.348          44.000  
J03  35647738.891                3       -693.660          29.000    35647738.896                3       -547.171          27.000  
J07  36150624.991   189972815.7043       -531.407          41.000    36150632.690   148030800.402        -413.264          40.000  
G25  21778499.498                3       2092.317          32.000    21778521.546                3       1630.525          27.000                                                                  
G23  19798719.367   104042974.460         -86.126          46.000    19798718.563    81072441.344         -66.727          44.000                                                                  
C08  36033755.218   187637212.847         244.556          42.000    36033749.670   145092973.321         189.011          44.000  
C09  36894361.854   192118615.194        -100.696          42.000    36894360.017   148558284.505         -78.969          40.000  
C06  35741443.515   186115071.303        -250.824          47.000    35741438.476   143915956.108        -193.924          42.000  
C37  23635174.051                2       2373.395          33.000                                                                  
C23  21744456.425   113229085.546          71.392          46.000                                                                  
C39  35629021.397   185529665.148        -598.877          48.000                                                                  
R21  22310250.181                3      -4143.982          33.000    22310250.183                3      -3227.080          28.000  
R07  21232061.596                2        715.057          39.000    21232057.653                         554.800          36.000  
R10  21580509.698                3       3635.380          17.000                                                                  
R09  19382604.851   103502109.644         809.003          50.000    19382602.750    80501567.167         628.891          43.000  
R16  21394243.653                3      -3016.943          27.000    21394177.314                3      -2348.841          18.000  
G12  22335690.111                3        721.147          29.000    22335700.952                3        558.841          30.000                                                                  
S28  36971904.336   194288669.180        -529.438          46.000  
E33  23583089.202   123929955.307       -1395.977          47.000    23583092.173    94959339.703       -1069.750          44.000  
C13  36233801.317   188678912.776         358.110          47.000    36233803.617   145898507.210         277.524          40.000  
C16  36157504.011   188281600.990        -444.938          46.000    36157504.597   145591288.852        -344.092          44.000  
E26  25225908.492                3      -3314.029          28.000                                                                  
E27  26004346.871                3        360.166          31.000    26004359.267                3        276.468          27.000  
E21  26101043.488                1       1799.238          33.000    26100998.852                3       1377.051          23.000  
E29  24289738.333   127643451.379       -1271.327          47.000                                                                  
G24                                                                  21798313.781                3      -2833.769          14.000                                                                  
J04                                                                  38758979.583   158711598.298         125.995          40.000  
> 2025 10 27 02 15 04.9990000  0 29                     
G18  21699409.143                2      -3370.635          38.000    21699411.288                       -2625.788          38.000                                                                  
S29  36555346.916   192099657.287        -533.196          45.000  
J03  35647867.617                2       -707.324          32.000    35647873.275                        -548.956          27.000  
J07  36150734.144   189973389.7283       -531.348          43.000    36150728.173   148031214.229        -414.039          40.000  
G25  21778118.885                3       2090.679          33.000    21778125.436                        1630.493          32.000                                                                  
G23  19798735.841   104043060.406         -86.824          48.000    19798735.019    81072508.322         -67.542          42.000                                                                  
C08  36033708.295   187636968.552         243.865          41.000    36033702.751   145092784.394         189.141          44.000  
C09  36894381.418   192118717.653        -103.265          38.000    36894379.743   148558363.762         -79.374          42.000  
C06  35741491.902   186115322.293        -250.579          42.000    35741486.739   143916150.192        -194.016          42.000  
C37  23634716.385                2       2373.920          33.000                                                                  
C23  21744443.161   113229015.200          69.678          45.000                                                                  
C39  35629136.279   185530263.977        -599.213          44.000                                                                  
R21  22311023.443                3      -4144.922          36.000    22311025.045                2      -3226.336          27.000  
R07  21231932.775                         713.413          45.000    21231924.386                3        550.098          37.000  
R10  21579822.913                3       3635.380          14.000                                                                  
R09  19382452.987   103501300.744         808.925          47.000    19382451.190    80500937.992         628.202          45.000  
G12  22335545.824                3        717.695          32.000    22335563.957                3        561.193          29.000                                                                  
S28  36972005.338   194289199.287        -530.167          44.000  
E33  23583355.129   123931352.355       -1397.474          46.000    23583358.407    94960410.119       -1070.770          46.000  
C13  36233732.613   188678554.422         358.389          44.000    36233734.807   145898230.051         277.509          42.000  
C16  36157589.593   188282046.373        -445.507          45.000    36157590.118   145591633.253        -344.250          43.000  
E26  25226535.934                       -3318.104          27.000                                                                  
E21  26100693.028                        1798.969          38.000    26100653.816                3       1382.632          22.000  
E29  24289980.004   127644721.599       -1270.559          45.000                                                                  
G28  22833563.169   119991183.4873       2274.142          41.000                                                                                                                                  
E27                                                                  26004286.035                3        273.970          32.000  
R16                                                                  21394743.050                3      -2351.646          18.000  
G24                                                                  21799007.243                3      -2834.261          15.000                                                                  
J04                                                                  38758948.869   158711472.533         126.298          41.000  
> 2025 10 27 02 15 05.9990000  0 28                     
G18  21700053.058   114034548.2603      -3371.073          39.000    21700053.827    88858113.4901      -2626.441          36.000                                                                  
S29  36555448.443   192100190.990        -534.287          41.000  
J03  35648001.747                2       -704.071          28.000    35648007.009                3       -548.735          28.000  
J07  36150834.744   189973918.3392       -530.323          42.000    36150834.217   148031628.480        -413.964          46.000  
G25  21777712.129                2       2092.669          32.000    21777727.080                        1628.585          27.000                                                                  
G23  19798752.366   104043146.902         -86.643          48.000    19798751.378    81072575.671         -66.624          41.000                                                                  
C08  36033661.437   187636724.372         244.756          41.000    36033655.782   145092595.494         188.457          46.000  
C09  36894401.092   192118820.603        -102.864          41.000    36894399.452   148558443.347         -80.368          43.000  
C06  35741540.169   186115573.839        -252.398          43.000    35741535.003   143916344.667        -194.944          43.000  
C37  23634259.145                2       2373.047          33.000                                                                  
C23  21744429.597   113228945.968          68.924          47.000                                                                  
C39  35629251.392   185530863.120        -598.975          46.000                                                                  
R21  22311795.061                2      -4147.094          32.000    22311799.376                2      -3227.468          28.000  
R07  21231800.358                3        709.036          40.000    21231791.098                2        553.439          33.000  
R09  19382301.539   103500492.975         807.073          51.000    19382299.752    80500309.782         627.685          43.000  
R16  21395373.618                3      -3019.238          30.000    21395309.049                3      -2362.137          18.000  
G12  22335405.878                2        716.927          39.000    22335421.579                3        564.665          26.000                                                                  
S28  36972106.180   194289729.734        -530.823          45.000  
E33  23583621.008   123932750.136       -1398.830          45.000    23583624.043    94961481.148       -1071.703          42.000  
C13  36233663.751   188678195.883         358.888          45.000    36233666.012   145897952.907         277.108          42.000  
C16  36157675.304   188282492.119        -445.822          46.000    36157675.771   145591977.944        -345.199          42.000  
E26  25227169.604                1      -3316.758          35.000                                                                  
E27  26004208.881                3        358.982          30.000    26004216.569                         274.597          31.000  
E21  26100353.122                1       1794.526          34.000    26100313.228                3       1373.273          20.000  
E29  24290221.710   127645991.550       -1269.708          45.000                                                                  
G28  22833130.682   119988909.5442       2274.331          39.000                                                                                                                                  
G24                                                                  21799700.834                3      -2840.260          17.000                                                                  
J04                                                                  38758918.231   158711346.803         125.825          41.000  
