     3.04           OBSERVATION DATA    M: Mixed            RINEX VERSION / TYPE
RTKCONV-EX 2.5.0                        20251027 023724 UTC PGM / RUN BY / DATE 
format: u-blox UBX                                          COMMENT             
log: C:\Users\kui\Desktop\COM4___9600_251027_020426.ubx     COMMENT             
                                                            MARKER NAME         
                                                            MARKER NUMBER       
                                                            MARKER TYPE         
                                                            OBSERVER / AGENCY   
                                                            REC # / TYPE / VERS 
                                                            ANT # / TYPE        
 -2418240.9122  5385813.2378  2405795.9835                  APPROX POSITION XYZ 
        0.0000        0.0000        0.0000                  ANTENNA: DELTA H/E/N
G    8 C1C L1C D1C S1C C2X L2X D2X S2X                      SYS / # / OBS TYPES 
R    8 C1C L1C D1C S1C C2C L2C D2C S2C                      SYS / # / OBS TYPES 
E    8 C1X L1X D1X S1X C7X L7X D7X S7X                      SYS / # / OBS TYPES 
J    8 C1C L1C D1C S1C C2X L2X D2X S2X                      SYS / # / OBS TYPES 
S    4 C1C L1C D1C S1C                                      SYS / # / OBS TYPES 
C    8 C2I L2I D2I S2I C7I L7I D7I S7I                      SYS / # / OBS TYPES 
  2025    10    27    02    04   50.0050000     GPS         TIME OF FIRST OBS   
  2025    10    27    02    07   23.0050000     GPS         TIME OF LAST OBS    
G L1C                                                       SYS / PHASE SHIFT   
G L2X  0.00000                                              SYS / PHASE SHIFT   
R L1C                                                       SYS / PHASE SHIFT   
R L2C                                                       SYS / PHASE SHIFT   
E L1X  0.00000                                              SYS / PHASE SHIFT   
E L7X  0.00000                                              SYS / PHASE SHIFT   
J L1C                                                       SYS / PHASE SHIFT   
J L2X  0.00000                                              SYS / PHASE SHIFT   
S L1C                                                       SYS / PHASE SHIFT   
C L2I                                                       SYS / PHASE SHIFT   
C L7I                                                       SYS / PHASE SHIFT   
 10 R05  1 R06 -4 R07  5 R08  6 R09 -2 R10 -7 R16 -1 R21  4 GLONASS SLOT / FRQ #
    R22 -3 R23  3                                           GLONASS SLOT / FRQ #
 C1C    0.000 C1P    0.000 C2C    0.000 C2P    0.000        GLONASS COD/PHS/BIS 
                                                            END OF HEADER       
> 2025 10 27 02 04 50.0050000  0 19                     
G23  21613124.382   113577772.5851        195.953          43.000    21613121.231    88502115.871         152.784          39.000  
G25  23838562.903   125272447.182        2218.156          43.000    23838561.953                        1728.858          31.000  
G24  23188904.093                       -3496.740          22.000    23188903.649    94954680.943       -2723.942          35.000  
G18  23124703.123   121521148.254       -3162.731          36.000    23124706.738    94691860.021       -2465.060          34.000  
C08  37871823.934   197208506.565         269.659          39.000    37871815.138   152494084.0961        208.022          36.000  
C38  37441157.225   194965913.789         -24.780          40.000                                                                  
C13  38084151.796   198314134.444         363.919          38.000    38084149.733   153349082.372         281.759          35.000  
C09  38694861.950                         -25.699          27.000    38694856.781                         -22.435          24.000  
C16  37917561.498   197446694.5951       -365.437          37.000    37917559.032   152678291.3311       -281.993          35.000  
C23  23578691.045   122780431.8991        376.592          44.000                                                                  
R09  21310503.536   113796901.147        1273.757          45.000    21310499.766    88508685.5701        990.846          42.000  
G12  24242382.437   127394576.887         970.907          39.000    24242385.016                         756.822          29.000  
S37  37895898.305   199144283.378        -540.070          41.000  
G10  23825255.726                1       2217.271          27.000                                                                  
E21  28118752.479   147765041.387        1788.687          35.000                                                                  
E27  27864777.199   146430390.266         542.138          34.000                                                                  
J03  37376313.828   196413852.2941       -653.687          38.000    37376330.548                        -509.857          35.000  
C06                                                                  37524507.963   151095634.691        -131.560          32.000  
J04                                                                  40581730.664   166175407.878          75.383          39.000  
> 2025 10 27 02 04 51.0050000  0 19                     
G23  21613087.119   113577576.861         195.261          43.000    21613083.997    88501963.369         152.277          39.000  
G25  23838140.755   125270228.869        2218.196          43.000    23838139.718    97613217.439        1728.681          31.000  
G24  23189567.608   121861999.9443      -3495.578          31.000    23189568.838    94957404.989       -2724.339          36.000  
G18  23125305.067   121524311.596       -3163.745          36.000    23125308.756    94694324.849       -2464.813          33.000  
C08  37871772.145   197208236.960         269.252          39.000    37871763.374   152493875.613         208.077          36.000  
C38  37441161.963   194965938.755         -25.275          40.000                                                                  
C13  38084081.833   198313770.619         363.366          37.000    38084079.877   153348801.031         280.533          35.000  
C09  38694865.626   201494305.465         -25.649          27.000    38694862.569                         -15.130          22.000  
C16  37917631.695   197447059.892        -366.213          35.000    37917629.228   152678573.801        -282.281          34.000  
C23  23578618.763   122780055.780         375.736          42.000                                                                  
R09  21310265.112   113795627.705        1273.016          45.000    21310261.407    88507695.144         990.034          42.000  
G12  24242197.902   127393606.455         969.755          39.000    24242200.536    99267739.753         755.807          30.000  
S37  37896001.105   199144823.529        -539.813          39.000  
G10  23824833.610   125200346.5891       2216.741          27.000                                                                  
E21  28118412.395   147763252.932        1787.936          36.000                                                                  
E27  27864673.929   146429848.419         542.223          34.000                                                                  
J03  37376438.327   196414506.249        -653.955          40.000    37376447.694   153050334.801        -510.101          35.000  
C06                                                                  37524540.663   151095766.368        -132.777          31.000  
J04                                                                  40581712.188   166175332.642          74.991          39.000  
> 2025 10 27 02 04 52.0050000  0 19                     
G23  21613050.027   113577381.867         194.790          45.000    21613046.875    88501811.397         151.751          41.000  
G25  23837718.806   125268011.003        2217.752          42.000    23837717.972    97611489.284        1727.854          31.000  
G24  23190232.844   121865495.1592      -3496.410          35.000    23190234.191    94960129.433       -2724.208          34.000  
G18  23125907.133   121527475.568       -3164.387          33.000    23125910.727    94696790.268       -2465.380          26.000  
C08  37871720.492   197207967.674         269.138          40.000    37871711.649   152493667.310         208.087          40.000  
C38  37441166.759   194965964.011         -25.159          42.000                                                                  
C13  38084011.960   198313407.008         363.352          39.000    38084010.137   153348519.859         280.828          35.000  
C09  38694873.310   201494358.7673        -24.664          27.000    38694868.487                         -14.035          20.000  
C16  37917701.932   197447425.615        -365.979          36.000    37917699.462   152678856.591        -282.794          34.000  
C23  23578546.635   122779680.422         375.010          41.000                                                                  
R09  21310026.906   113794355.265        1271.994          43.000    21310023.157    88506705.499         989.403          39.000  
G12  24242013.400   127392636.635         969.595          42.000    24242015.988    99266984.003         755.762          35.000  
S37  37896103.993   199145363.979        -540.350          36.000  
G10  23824411.670   125198129.889        2216.606          27.000                                                                  
E21  28118072.050   147761464.663        1788.157          36.000                                                                  
E27  27864570.620   146429307.187         541.001          31.000                                                                  
C06  37524579.488   195400331.9162       -170.389          30.000    37524573.494   151095898.244        -131.888          31.000  
J03  37376562.860   196415160.497        -654.181          38.000    37376568.595   153050844.581        -509.784          36.000  
J04                                                                  40581693.810   166175257.502          75.454          39.000  
> 2025 10 27 02 04 53.0050000  0 20                     
G23  21613012.970   113577187.129         194.247          44.000    21613009.873    88501659.673         151.529          41.000  
G25  23837296.772   125265793.125        2217.631          42.000    23837295.757    97609761.078        1728.400          31.000  
G24  23190896.784   121868984.6593      -3496.217          37.000    23190899.556    94962853.949       -2724.654          34.000  
G18  23126509.279   121530639.644       -3164.903          34.000    23126512.746    94699255.841       -2465.579          26.000  
C08  37871668.732   197207698.219         269.342          40.000    37871659.999   152493458.968         208.409          40.000  
C38  37441171.617   194965989.157         -25.092          42.000                                                                  
C13  38083942.044   198313043.317         363.355          40.000    38083940.217   153348238.638         281.011          36.000  
C09  38694873.500   201494384.2162        -25.003          27.000    38694873.791                         -17.729          18.000  
C16  37917772.240   197447791.258        -365.824          36.000    37917769.693   152679139.331        -282.712          35.000  
C23  23578474.509   122779305.338         374.605          41.000                                                                  
R09  21309788.773   113793083.443        1271.480          43.000    21309785.005    88505716.300         988.893          39.000  
R16  22880879.824   122225552.9602      -2588.411          26.000    22880892.462                       -2014.594          25.000  
G12  24241828.891   127391667.015         969.358          41.000    24241831.443    99266228.491         754.546          34.000  
S37  37896206.722   199145904.240        -540.149          37.000  
G10  23823989.718   125195913.074        2216.903          28.000                                                                  
E21  28117731.687   147759676.261        1787.967          37.000                                                                  
E27  27864467.645   146428765.937         541.580          32.000                                                                  
C06  37524612.841   195400502.3632       -170.195          23.000    37524606.178   151096030.178        -132.563          31.000  
J03  37376687.428   196415814.738        -654.254          39.000    37376691.947   153051354.350        -509.583          36.000  
J04                                                                  40581675.329   166175182.174          75.198          39.000  
> 2025 10 27 02 04 54.0050000  0 20                     
G23  21612976.044   113576992.664         194.490          44.000    21612972.901    88501508.141         151.918          41.000  
G25  23836874.783   125263575.291        2217.655          42.000    23836873.607    97608032.864        1728.763          31.000  
G24  23191563.193   121872486.3072      -3496.694          37.000    23191564.990    94965578.573       -2725.141          32.000  
G18  23127111.412   121533803.975       -3164.157          34.000    23127114.647    94701721.511       -2465.949          26.000  
C08  37871616.981   197207428.679         269.843          39.000    37871608.235   152493250.544         208.823          39.000  
C38  37441176.665   194966014.231         -25.140          42.000                                                                  
C13  38083872.213   198312679.458         364.375          39.000    38083870.327   153347957.299         281.354          35.000  
C09  38694875.122   201494409.4932        -25.338          26.000                                                                  
C16  37917842.412   197448156.852        -364.575          34.000    37917839.861   152679422.076        -282.670          34.000  
C23  23578402.640   122778930.637         374.416          40.000                                                                  
R09  21309550.749   113791812.182        1270.954          43.000    21309546.955    88504727.551         988.616          39.000  
R16  22881366.130   122228142.0002      -2588.986          26.000    22881375.889                       -2014.464          25.000  
G12  24241644.524   127390697.655         969.396          41.000    24241646.842    99265473.125         755.138          34.000  
S37  37896309.592   199146444.369        -540.314          36.000  
G10  23823567.515   125193696.280        2216.453          30.000                                                                  
E21  28117391.335   147757887.570        1788.893          35.000                                                                  
E27  27864364.237   146428224.976         541.107          31.000                                                                  
J03  37376811.843   196416468.891        -654.059          38.000    37376816.060   153051864.050        -509.369          36.000  
C06                                                                  37524638.824   151096162.030        -131.719          30.000  
J04                                                                  40581656.829   166175106.618          75.740          39.000  
> 2025 10 27 02 04 55.0050000  0 20                     
G23  21612939.125   113576798.360         194.045          44.000    21612935.981    88501356.750         150.949          40.000  
G25  23836452.713   125261357.335        2217.509          41.000    23836451.759    97606304.602        1727.851          31.000  
G24  23192230.594   121875993.8822      -3496.097          31.000    23192230.351    94968303.175       -2724.851          33.000  
G18  23127713.630   121536968.425       -3165.028          34.000    23127716.789    94704187.241       -2465.189          25.000  
C08  37871565.166   197207158.887         269.481          38.000    37871556.428   152493041.923         208.168          38.000  
C38  37441181.496   194966039.077         -24.664          40.000                                                                  
C13  38083802.288   198312315.336         364.070          37.000    38083800.491   153347675.744         281.155          35.000  
C09  38694888.189   201494434.6332        -25.762          27.000    38694888.734                         -20.919          15.000  
C16  37917912.580   197448522.405        -366.532          36.000    37917910.022   152679704.696        -283.149          35.000  
C23  23578330.674   122778556.125         373.912          40.000                                                                  
R09  21309312.759   113790541.348        1270.021          43.000    21309308.975    88503739.122         987.710          39.000  
R16  22881851.436   122230731.5302      -2589.956          27.000    22881860.039                       -2013.843          24.000  
G12  24241460.154   127389728.396         969.081          40.000    24241462.344    99264717.863         754.988          34.000  
S37  37896412.377   199146984.142        -539.496          36.000  
G10  23823145.386   125191479.179        2217.549          29.000                                                                  
E21  28117050.930   147756098.645        1788.385          37.000                                                                  
E27  27864261.060   146427683.931         541.422          30.000                                                                  
J03  37376936.336   196417122.828        -654.095          37.000    37376940.419   153052373.650        -510.193          36.000  
C06                                                                  37524671.569   151096293.815        -131.705          30.000  
J04                                                                  40581638.336   166175030.763          75.917          39.000  
> 2025 10 27 02 04 56.0050000  0 20                     
G23  21612902.304   113576604.374         193.627          44.000    21612899.092    88501205.575         151.099          40.000  
G25  23836030.552   125259139.404        2217.808          41.000    23836029.702    97604576.335        1728.728          31.000  
G24  23192894.903   121879490.5882      -3496.695          35.000    23192895.749    94971027.934       -2725.488          32.000  
G18  23128315.886   121540133.055       -3165.045          35.000    23128319.035    94706653.283       -2466.089          24.000  
C08  37871513.291   197206888.993         269.634          39.000    37871504.716   152492833.221         208.453          38.000  
C38  37441186.084   194966063.905         -25.159          42.000                                                                  
C13  38083732.272   198311951.070         364.250          40.000    38083730.562   153347394.050         281.501          35.000  
C09  38694891.072   201494459.7052        -25.094          27.000    38694888.008                         -20.919          13.000  
C16  37917982.712   197448887.762        -365.223          36.000    37917980.245   152679987.252        -282.286          35.000  
C23  23578258.910   122778181.956         373.778          40.000                                                                  
R09  21309074.930   113789271.094        1269.717          43.000    21309071.163    88502751.148         987.423          39.000  
R16  22882336.588   122233321.6452      -2590.025          27.000    22882344.419                       -2016.036          23.000  
G12  24241275.784   127388759.374         968.542          40.000    24241277.809    99263962.772         754.988          35.000  
S37  37896515.048   199147523.782        -539.490          36.000  
G10  23822723.643   125189262.061        2217.746          30.000                                                                  
E21  28116710.295   147754309.462        1789.005          37.000                                                                  
E27  27864158.553   146427143.093         540.232          31.000                                                                  
C06  37524711.582                        -168.549          24.000    37524704.337   151096425.542        -131.774          29.000  
J03  37377060.784   196417776.704        -653.827          37.000    37377064.659   153052883.156        -509.686          36.000  
J04                                                                  40581619.740   166174954.746          75.833          38.000  
> 2025 10 27 02 04 57.0050000  0 19                     
G23  21612865.548   113576411.397         191.785          29.000    21612862.250    88501055.101         149.617          31.000  
G25  23835608.618   125256922.099        2216.781          35.000    23835607.709    97602848.528        1726.741          23.000  
G24  23193560.359                       -3503.204          25.000    23193561.301    94973753.086       -2725.496          25.000  
G18  23128918.289   121543298.497       -3166.543          26.000                                                                  
C08  37871461.671                         269.832          27.000    37871453.029   152492624.812         209.775          30.000  
C38  37441190.927   194966089.170         -26.270          29.000                                                                  
C13  38083662.292   198311587.065         364.399          27.000    38083660.163   153347118.3193        280.646          26.000  
C09  38694895.277                         -22.277          17.000    38694894.671                         -31.666          15.000  
C16  37918052.990   197449253.697        -364.669          29.000    37918050.369   152680270.252        -282.421          30.000  
C23  23578187.279   122777808.636         372.760          36.000                                                                  
R09  21308837.253   113788001.988        1268.612          37.000    21308833.477    88501763.972         986.870          34.000  
G12  24241091.490   127387791.010         968.994          27.000    24241093.516    99263208.202         753.940          29.000  
S37  37896617.813   199148063.840        -540.283          32.000  
G10  23822302.497                1       2219.103          19.000                                                                  
E21  28116370.070   147752520.704        1790.032          29.000                                                                  
E27  27864055.168                         539.311          25.000                                                                  
C06  37524744.349                        -175.028          27.000    37524737.015   151096557.517        -130.882          28.000  
J03  37377185.320   196418430.978        -653.925          31.000    37377189.067   153053392.995        -510.382          31.000  
J04                                                                  40581601.163   166174878.951          75.179          31.000  
> 2025 10 27 02 04 58.0050000  0 20                     
G23  21612828.877   113576218.532         192.347          33.000    21612825.735    88500905.462         150.238          33.000  
G25  23835186.607   125254704.417        2217.153          36.000    23835185.843    97601120.991        1727.978          24.000  
G24  23194228.030   121886490.4733      -3497.307          35.000    23194227.574    94976483.9571      -2724.945          31.000  
G18  23129520.261                       -3163.656          25.000                                                                  
C08  37871407.960   197206358.6733        268.821          33.000    37871401.366   152492417.129         207.546          31.000  
C38  37441195.699   194966113.496         -25.787          36.000                                                                  
C13  38083592.322   198311223.421         364.299          35.000    38083590.433                         279.129          25.000  
C09  38694898.795                         -28.412          18.000    38694899.639                         -22.757          19.000  
C16  37918124.652                1       -366.351          30.000    37918120.409   152680558.1803       -282.770          31.000  
C23  23578115.571   122777435.068         372.677          40.000                                                                  
R09  21308599.591   113786732.876        1268.586          40.000    21308596.298    88500778.4593        986.508          35.000  
G12  24240907.367   127386822.683         967.371          42.000                                                                  
S37  37896720.214   199148608.6433       -539.502          35.000  
G10  23821881.100                        2218.842          16.000                                                                  
E21  28116030.051   147750731.472        1789.095          34.000                                                                  
E27  27863955.718   146426074.6431        539.748          39.000                                                                  
C37  25726056.205   133962325.539        2483.643          33.000                                                                  
J03  37377309.140   196419084.2873       -654.309          37.000    37377313.636   153053903.319        -511.127          30.000  
C06                                                                  37524768.296                        -131.525          27.000  
J04                                                                  40581582.516   166174803.429          76.554          31.000  
> 2025 10 27 02 04 59.0050000  0 19                     
G23  21612792.155   113576025.487         193.137          39.000    21612789.326    88500755.707         149.420          35.000  
G25  23834764.798   125252486.820        2217.639          36.000    23834764.087    97599393.425        1727.809          25.000  
G24  23194891.822   121889978.9833      -3496.884          34.000    23194893.514    94979209.621       -2726.383          30.000  
G18  23130123.219   121549617.7123      -3165.355          37.000    23130124.469                       -2467.897          25.000  
C08  37871356.108   197206088.5142        271.108          34.000    37871349.536   152492208.861         208.335          35.000  
C38  37441200.371   194966138.106         -24.835          39.000                                                                  
C13  38083522.368   198310858.770         364.983          30.000    38083519.739                         284.707          23.000  
C09  38694904.108   201494519.5183        -23.792          31.000    38694904.554                         -18.158          20.000  
C16  37918193.309   197449990.0343       -365.310          34.000    37918190.424   152680841.4872       -283.540          27.000  
C23  23578043.942   122777061.914         373.076          39.000                                                                  
R09  21308362.171   113785464.447        1267.888          42.000    21308358.412    88499790.6052        985.577          36.000  
G12  24240723.309   127385854.757         967.645          40.000    24240724.033    99261712.4411        753.924          26.000  
S37  37896822.915   199149147.7902       -539.551          37.000  
E21  28115689.713   147748942.044        1789.453          31.000                                                                  
E27  27863853.123   146425534.589         540.151          39.000    27863859.519                         410.700          30.000  
C37  25725579.241   133959841.631        2484.118          38.000                                                                  
C06  37524809.012   195401527.1703       -169.706          35.000    37524800.489                        -134.720          26.000  
J03  37377433.179   196419738.1742       -653.613          39.000    37377438.131   153054413.024        -510.565          30.000  
J04                                                                  40581564.098   166174727.641          76.073          30.000  
> 2025 10 27 02 05 00.0050000  0 20                     
G23  21612755.489   113575832.534         192.594          39.000    21612752.509    88500605.188         150.235          36.000  
G25  23834343.046   125250268.795        2218.238          38.000    23834342.123    97597665.087        1728.390          27.000  
G24  23195559.263   121893486.0512      -3497.161          33.000    23195559.230                       -2726.309          23.000  
G18  23130727.133   121552791.0472      -3165.490          37.000    23130725.503    94716454.0761      -2466.247          27.000  
C08  37871303.350   197205818.1052        270.128          33.000    37871297.454   152491999.601         209.324          38.000  
C38  37441204.743   194966162.448         -24.194          37.000                                                                  
C13  38083452.163   198310493.875         364.765          31.000    38083450.368                         282.575          22.000  
C09  38694910.239   201494544.3862        -24.648          31.000    38694910.331                         -20.153          24.000  
C16  37918261.093   197450355.3232       -365.919          35.000    37918260.142   152681123.7162       -281.945          28.000  
C23  23577972.312   122776689.021         372.938          38.000                                                                  
R09  21308124.788   113784196.419        1267.447          40.000    21308120.470    88498804.2052        986.439          36.000  
G12  24240539.170   127384886.555         968.115          40.000    24240539.266    99260957.951         754.263          29.000  
S37  37896925.700   199149686.6542       -538.788          37.000  
E21  28115348.019   147747152.007        1790.021          33.000                                                                  
E27  27863749.881   146424994.126         540.760          40.000    27863755.671   112195797.3381        414.402          32.000  
C37  25725102.121   133957357.560        2484.547          36.000                                                                  
C06  37524841.378   195401697.2882       -169.940          34.000    37524830.900                        -122.914          25.000  
J03  37377558.077   196420391.6412       -653.149          38.000    37377562.508   153054922.112        -508.929          31.000  
G28  24914379.267                        2472.328          15.000                                                                  
J04                                                                  40581545.218   166174650.572          77.372          33.000  
> 2025 10 27 02 05 01.0050000  0 20                     
G23  21612719.011   113575641.142         191.637          33.000    21612715.839    88500454.612         149.237          40.000  
G25  23833921.140   125248051.597        2217.338          41.000    23833920.142    97595936.476        1727.932          27.000  
G24  23196222.622   121896971.6852      -3496.712          20.000    23196224.374    94984660.6441      -2725.225          31.000  
G18  23131330.436   121555961.5552      -3166.771          34.000                                                                  
C08  37871252.686   197205548.6742        269.487          29.000    37871245.254   152491789.944         208.544          38.000  
C38  37441209.630   194966188.104         -25.378          34.000                                                                  
C13  38083382.141   198310129.652         364.427          30.000    38083380.278   153345991.0573        281.861          30.000  
C09  38694914.001   201494570.2542        -24.625          25.000    38694914.023                         -18.981          23.000  
C16  37918331.855   197450721.7942       -366.237          35.000    37918329.279   152681398.9153       -283.042          35.000  
C23  23577900.940   122776317.717         372.568          38.000                                                                  
R09  21307887.617   113782930.124        1266.643          42.000    21307884.566    88497817.4551        984.832          34.000  
G12  24240355.329   127383919.565         966.586          44.000    24240355.458    99260203.512         753.956          29.000  
S37  37897028.552   199150226.5302       -539.502          39.000  
E21  28115007.413   147745362.322        1789.727          39.000                                                                  
E27  27863643.726   146424454.784         538.764          36.000    27863652.208   112195383.320         414.260          33.000  
C37  25724625.155   133954874.208        2483.575          38.000                                                                  
C06  37524875.403   195401868.5772       -170.979          36.000    37524864.764                        -131.318          31.000  
J03  37377682.488   196421045.3531       -654.053          40.000                                                                  
G28  24913925.952                        2459.511          19.000                                                                  
J04                                                                  40581526.415   166174573.145          76.927          36.000  
> 2025 10 27 02 05 02.0050000  0 20                     
G23  21612682.507   113575449.790         191.526          41.000    21612679.321    88500305.222         148.740          41.000  
G25  23833499.236   125245834.650        2216.766          37.000    23833498.405    97594209.040        1727.367          35.000  
G24  23196887.363   121900465.3303      -3500.155          28.000    23196890.776    94987386.249       -2725.419          37.000  
G18  23131931.629                       -3167.848          21.000    23131933.044    94721398.818       -2466.251          27.000  
C08  37871207.344   197205279.1312        270.559          37.000    37871193.374   152491581.116         208.116          42.000  
C38  37441215.039   194966213.273         -24.188          42.000                                                                  
C13  38083315.542                         364.660          36.000    38083309.447   153345708.9872        281.791          33.000  
C09  38694923.576   201494595.9692        -24.186          34.000    38694915.825   155808391.4123        -20.126          35.000  
C16  37918408.058   197451087.6582       -365.236          42.000    37918400.552   152681681.7762       -283.597          42.000  
C23  23577830.185   122775946.308         371.907          45.000                                                                  
R09  21307651.046   113781664.106        1267.176          47.000    21307647.059    88496832.641         984.444          43.000  
G12  24240171.304   127382952.759         966.555          43.000    24240170.161    99259450.190         752.875          37.000  
S37  37897130.997   199150765.8642       -539.246          40.000  
E21  28114666.474   147743572.877        1787.709          31.000                                                                  
E27  27863541.365   146423915.609         538.895          40.000    27863549.352   112194970.168         412.306          37.000  
C37  25724148.421   133952391.032        2483.862          35.000                                                                  
C06  37524912.679   195402039.4082       -170.845          36.000    37524899.117   151097218.2453       -132.684          41.000  
J03  37377806.037   196421699.684        -655.212          36.000    37377807.666   153055873.7401       -510.272          37.000  
G28  24913475.305                        2459.511          19.000                                                                  
J04                                                                  40581507.667   166174496.355          76.386          41.000  
> 2025 10 27 02 05 03.0050000  0 19                     
G23  21612645.805   113575257.517         191.931          41.000    21612642.666    88500155.306         150.074          36.000  
G25  23833077.048   125243616.449        2218.491          42.000    23833076.393    97592480.418        1730.292          26.000  
G24  23197554.201   121903969.5633      -3497.240          42.000    23197555.699    94990111.929       -2726.771          33.000  
G18  23132530.843                       -3165.953          34.000    23132534.598    94723861.8261      -2466.734          34.000  
C08  37871152.141   197205007.6581        271.661          39.000    37871141.399   152491371.541         210.421          41.000  
C38  37441219.971   194966237.029         -23.083          41.000                                                                  
C13  38083243.764   198309443.8153        365.750          44.000    38083239.807   153345426.2661        279.566          28.000  
C16  37918477.679   197451452.750        -364.659          39.000    37918470.801   152681963.998        -278.593          33.000  
C23  23577759.189   122775573.984         372.278          46.000                                                                  
R09  21307414.398   113780397.286        1267.209          44.000    21307408.970    88495847.506         985.295          40.000  
R16  22885728.189   122251452.1563      -2592.978          28.000    22885749.568    95084551.2383      -2016.662          29.000  
G12  24239987.149   127381984.980         969.286          45.000    24239986.017    99258696.153         754.988          35.000  
S37  37897233.374   199151303.8992       -537.573          41.000  
E21  28114325.911   147741782.135        1790.369          41.000                                                                  
E27  27863435.729   146423375.437         541.717          44.000    27863448.804   112194556.093         414.916          38.000  
C06  37524945.181   195402209.3492       -169.269          34.000    37524932.773   151097349.0381       -130.550          29.000  
J03  37377930.547   196422350.0963       -653.009          41.000    37377930.344                        -506.961          29.000  
C09                                                                  38694918.537   155808409.9651        -20.158          28.000  
J04                                                                  40581488.669   166174418.469          79.296          34.000  
> 2025 10 27 02 05 04.0050000  0 21                     
G23  21612609.648   113575067.107         190.015          43.000    21612606.494    88500007.035         145.468          31.000  
G25  23832655.236   125241399.848        2218.138          30.000    23832654.370                        1725.363          23.000  
G24  23198218.601   121907468.2982      -3497.935          40.000    23198221.528    94992838.8331      -2725.949          36.000  
G18  23133134.994   121565444.2993      -3166.872          36.000    23133137.455                       -2464.306          20.000  
C08  37871098.878   197204738.115         269.727          41.000    37871089.691   152491163.116         207.358          33.000  
C38  37441224.729   194966262.576         -25.476          40.000                                                                  
C13  38083171.328   198309079.4192        364.627          41.000    38083169.243   153345141.2643        282.083          32.000  
C09  38694942.855   201494721.3023        -25.542          28.000    38694924.394                1        -17.773          26.000  
C16  37918546.760   197451819.228        -366.698          37.000    37918541.969   152682255.4673       -284.402          32.000  
C23  23577688.351   122775203.865         370.097          41.000    23577542.426                         369.616          20.000  
R21  23656405.412   126590203.5012      -4080.193          32.000    23656439.377                       -3171.695          25.000  
R09  21307177.772   113779133.111        1264.248          38.000    21307172.379    88494864.150         981.899          34.000  
R16  22886209.038   122254048.2242      -2597.021          28.000                                                                  
G12  24239803.512   127381019.363         966.040          41.000    24239803.948    99257943.689         753.023          31.000  
S37  37897336.066   199151842.8953       -539.471          40.000  
E21  28113986.097   147739992.583        1790.998          33.000                                                                  
E27  27863334.495   146422837.026         539.075          43.000    27863347.038   112194143.646         412.450          36.000  
C37  25723194.517   133947424.0463       2484.928          30.000                                                                  
C06  37524976.736   195402380.0711       -170.587          30.000    37524966.994   151097491.7073       -133.078          24.000  
J03  37378056.329                        -655.254          29.000                                                                  
J04                                                                  40581471.021   166174339.2221         73.081          30.000  
> 2025 10 27 02 05 05.0050000  0 21                     
G23  21612573.412   113574876.607         188.127          44.000    21612570.155    88499858.515         147.305          42.000  
G25  23832233.259   125239182.775        2215.169          37.000    23832240.641    97589040.6611       1727.118          36.000  
G24  23198883.832   121910967.0432      -3500.190          38.000    23198887.132    94995564.931       -2726.830          38.000  
G18  23133738.027   121568613.4533      -3166.672          32.000    23133736.834    94728784.8541      -2469.389          36.000  
C08  37871047.303   197204468.081         270.138          42.000    37871037.767   152490954.313         207.657          43.000  
C38  37441229.646   194966287.519         -25.012          44.000                                                                  
C13  38083101.953   198308714.7412        365.377          43.000    38083098.761   153344859.1152        281.115          37.000  
C16  37918616.965   197452185.383        -368.420          32.000    37918611.397   152682538.6012       -283.953          39.000  
C23  23577617.167   122774833.697         369.742          42.000                                                                  
R21  23657169.619   126594283.8512      -4081.858          36.000    23657201.646                       -3172.608          31.000  
R09  21306940.985   113777868.845        1264.264          43.000    21306935.621    88493880.758         983.006          43.000  
G12  24239619.574   127380053.134         964.451          42.000    24239620.943    99257190.629         752.116          37.000  
S37  37897438.610   199152381.8842       -541.284          40.000  
E21  28113638.899   147738169.0771       1789.389          35.000                                                                  
E27  27863232.362   146422298.127         537.685          39.000    27863243.596   112193730.711         411.761          41.000  
C06  37525009.257   195402551.152        -171.871          31.000    37524999.338   151097623.9072       -133.412          37.000  
J03  37378180.167   196423661.9683       -656.281          37.000    37378181.097   153057402.9701       -510.699          41.000  
G28  24912098.545                        2459.511          27.000                                                                  
C09                                                                  38694928.932   155808444.3483        -21.043          33.000  
J04                                                                  40581452.863   166174261.908          76.175          40.000  
R16                                                                  22886718.885    95088577.9942      -2019.088          26.000  
> 2025 10 27 02 05 06.0050000  0 22                     
G23  21612537.185   113574685.892         190.541          45.000    21612533.870    88499710.029         148.842          39.000  
G25  23831811.279   125236965.500        2218.134          41.000    23831817.547    97587313.029        1727.778          34.000  
G24  23199552.245   121914465.2062      -3498.438          41.000    23199552.592    94998290.961       -2726.602          37.000  
G18  23134340.811                       -3166.848          37.000    23134338.155    94731253.039       -2468.455          33.000  
C08  37870995.144   197204197.545         270.503          42.000    37870985.797   152490745.150         208.832          41.000  
C38  37441234.332   194966311.999         -24.615          43.000                                                                  
C13  38083030.461   198308349.5772        365.688          41.000    38083028.775   153344576.7542        282.128          36.000  
C16  37918686.924   197452551.274        -366.414          38.000    37918682.817   152682821.4522       -283.264          41.000  
C23  23577545.792   122774463.455         370.408          45.000                                                                  
R21  23657935.326   126598363.7182      -4080.968          32.000    23657953.069                       -3170.457          23.000  
R09  21306704.202   113776604.836        1264.861          44.000    21306698.874    88492897.646         982.708          42.000  
R16  22887178.594                       -2597.443          29.000    22887203.425                       -2019.982          26.000  
G12  24239435.776   127379086.753         965.650          42.000    24239435.964    99256437.742         752.869          35.000  
S37  37897541.156   199152920.392        -538.025          44.000  
E21  28113304.728   147736378.705        1790.405          38.000                                                                  
E27  27863131.448   146421758.955         538.743          42.000    27863140.658   112193317.624         412.694          38.000  
C37  25722240.045   133942453.3093       2479.958          31.000                                                                  
C06  37525041.952   195402722.047        -170.859          35.000    37525032.454   151097755.9552       -132.699          39.000  
J03  37378304.392   196424314.7313       -653.949          42.000    37378305.061   153057912.532        -510.052          37.000  
G28  24911638.223                        2459.511          26.000                                                                  
C09                                                                  38694932.075   155808456.9823        -22.905          31.000  
J04                                                                  40581433.412   166174184.265          77.696          38.000  
> 2025 10 27 02 05 07.0050000  0 19                     
G23  21612500.890   113574495.265         191.999          45.000    21612497.624                         145.792          28.000  
G25  23831389.225   125234748.140        2220.846          34.000    23831391.111    97585585.050        1726.204          34.000  
G24  23200218.089   121917963.409       -3497.025          34.000    23200218.094    95001016.694       -2727.315          32.000  
G18  23134945.889   121574960.8703      -3167.361          36.000    23134942.464                       -2470.380          26.000  
C08  37870943.096   197203926.493         272.133          44.000    37870933.474                1        208.194          29.000  
C38  37441241.727   194966370.3943        -21.271          42.000                                                                  
C13  38082961.974   198307983.7732        367.195          42.000    38082958.311                         278.878          21.000  
C09  38694947.647                         -22.979          28.000    38694935.011   155808476.3142        -19.098          26.000  
C16  37918756.986   197452916.548        -364.832          38.000    37918752.184   152683104.0272       -280.696          26.000  
C23  23577474.434   122774093.091         372.878          40.000                                                                  
R21  23658697.937                       -4077.946          30.000    23658713.068    98468651.5553      -3171.329          25.000  
R09  21306467.548   113775341.427        1264.352          34.000    21306462.170    88491914.787         981.625          32.000  
G12  24239251.904   127378120.478         969.129          37.000    24239251.331    99255684.613         752.803          31.000  
E21  28112958.965   147734587.855        1792.212          30.000    28112971.996                        1376.130          30.000  
E27  27863029.631   146421219.695         543.129          32.000    27863037.905                         417.737          22.000  
C37  25721764.373                        2486.240          29.000                                                                  
C06  37525074.372   195402892.314        -170.653          34.000    37525064.186   151097887.7092       -132.951          31.000  
J03  37378428.171   196424968.052        -650.562          31.000    37378431.416   153058421.530        -511.121          37.000  
J04                                                                  40581413.381                          76.241          27.000  
> 2025 10 27 02 05 08.0050000  0 21                     
G23  21612464.746   113574304.808         189.712          48.000    21612459.410    88499407.9301        148.650          40.000  
G25  23830967.506   125232579.1033       2217.360          44.000    23830970.107    97583838.1921       1727.107          35.000  
G24  23200883.698   121921461.729       -3499.049          45.000    23200883.264    95003742.646       -2726.238          32.000  
G18  23135547.620   121578128.3952      -3168.407          38.000    23135543.806    94736184.0621      -2467.352          27.000  
C08  37870890.805   197203655.462         270.365          44.000    37870881.714   152490346.8493        209.407          44.000  
C38  37441241.868   194966394.4392        -24.805          47.000                                                                  
C13  38082889.005   198307618.1952        365.017          45.000    38082890.291   153344017.9753        282.833          36.000  
C09  38694952.195   201494769.9663        -26.162          39.000    38694941.792   155808495.9953        -19.769          37.000  
C16  37918826.886   197453282.031        -365.933          46.000    37918822.070   152683386.3602       -282.953          38.000  
C23  23577403.082   122773723.175         369.211          48.000                                                                  
R21  23659463.140   126606565.9163      -4081.326          44.000    23659475.823    98471825.3412      -3174.592          32.000  
R09  21306230.928   113774078.258        1262.169          48.000    21306225.574    88490932.125         982.124          44.000  
R22  22982389.287                        -939.125          24.000                                                                  
R16  22888155.227   122264416.9513      -2598.580          30.000                                                                  
G12  24239068.204   127377154.515         965.384          47.000    24239067.565    99254932.124         751.960          38.000  
E21  28112624.833   147732796.628        1791.085          41.000    28112632.464   113197920.6371       1372.195          41.000  
E27  27862928.060   146420680.852         538.534          42.000    27862935.769   112192496.4201        412.192          43.000  
C37  25721286.785   133937489.9273       2482.943          43.000                                                                  
C06  37525106.769   195403062.601        -170.830          39.000    37525096.455   151098013.6093       -132.643          37.000  
J03  37378554.487   196425621.273        -652.997          43.000    37378554.557   153058930.534        -509.766          41.000  
J04                                                                  40581395.471   166174029.7161         78.645          40.000  
> 2025 10 27 02 05 09.0050000  0 21                     
G23  21612428.967   113574116.034         188.912          44.000    21612424.143    88499260.819         148.315          35.000  
G25  23830545.877   125230362.9452       2216.649          40.000    23830548.554    97582111.323        1727.011          36.000  
G24  23201549.701   121924961.379       -3498.820          42.000    23201549.347    95006469.541       -2726.931          33.000  
G18  23136147.713   121581297.3162      -3168.595          38.000    23136154.183    94738652.921       -2466.884          27.000  
C08  37870838.852   197203385.575         270.078          41.000    37870829.129   152490138.146         208.832          37.000  
C38  37441247.605   194966419.1261        -24.866          46.000                                                                  
C13  38082818.940   198307253.0111        364.705          43.000    38082818.995   153343735.963         282.594          35.000  
C09  38694954.935   201494796.150         -26.236          39.000    38694947.354   155808516.236         -18.461          30.000  
C16  37918897.034   197453648.711        -366.492          44.000    37918891.781   152683669.902        -283.579          38.000  
C23  23577332.043   122773354.897         368.974          45.000                                                                  
R21  23660227.355   126610654.9142      -4080.736          43.000    23660236.813    98474999.4812      -3173.969          32.000  
R09  21305994.408   113772820.4191       1261.958          46.000    21305989.382    88489951.087         981.004          39.000  
R22  22982550.230                        -946.347          26.000                                                                  
R16  22888644.634   122267031.1582      -2598.921          30.000                                                                  
G12  24238884.727   127376190.053         965.207          45.000    24238884.040    99254180.625         752.039          31.000  
E21  28112285.071   147731006.510        1791.498          39.000    28112292.149   113196548.967        1372.767          38.000  
E27  27862826.473   146420143.268         538.996          39.000    27862832.409   112192084.430         412.544          36.000  
C37  25720809.225   133935007.0491       2482.851          40.000                                                                  
C06  37525139.376   195403234.142        -170.866          36.000    37525128.313   151098145.8081       -132.596          35.000  
J03  37378677.930   196426275.738        -653.638          42.000    37378678.545   153059440.518        -509.534          38.000  
J04                                                                  40581376.919   166173952.207          78.612          34.000  
> 2025 10 27 02 05 10.0050000  0 21                     
G23  21612392.957   113573926.478         189.945          41.000    21612390.399    88499113.141         148.007          41.000  
G25  23830124.027   125228145.9332       2217.403          41.000    23830124.959    97580383.854        1727.764          34.000  
G24  23202215.446   121928459.787       -3498.364          41.000    23202214.905    95009195.666       -2725.366          36.000  
G18  23136730.604                       -3167.726          26.000    23136758.090    94741121.269       -2468.215          30.000  
C08  37870786.660   197203114.326         271.965          39.000    37870776.447   152489928.390         210.074          42.000  
C38  37441250.825   194966443.266         -23.962          40.000                                                                  
C13  38082748.689   198306886.910         366.382          40.000    38082749.744   153343452.931         283.354          34.000  
C09  38694955.949                         -23.262          26.000    38694954.438   155808535.695         -18.471          38.000  
C16  37918967.084   197454014.358        -365.197          40.000    37918962.361   152683952.747        -282.030          33.000  
C23  23577260.933   122772986.089         369.098          46.000                                                                  
R21  23660987.997   126614734.5392      -4079.628          29.000    23660996.525    98478172.3702      -3172.576          26.000  
R09  21305758.031   113771558.955        1261.899          46.000    21305753.188    88488969.803         981.302          41.000  
R22  22982715.340   122683295.2013       -941.913          26.000                                                                  
G12  24238701.018   127375224.892         965.641          40.000    24238700.439    99253428.386         752.499          33.000  
E21  28111938.989   147729215.311        1791.525          35.000    28111950.359   113195176.505        1372.254          33.000  
E27  27862724.063   146419604.727         538.841          38.000    27862730.880                         417.159          19.000  
C37  25720333.308   133932523.610        2483.698          35.000                                                                  
C39  37372532.058   194608581.051        -525.433          39.000                                                                  
C06  37525172.031   195403404.719        -170.293          37.000    37525163.923   151098277.656        -131.031          37.000  
J03  37378804.710   196426929.351        -653.113          41.000    37378803.028   153059949.764        -509.003          33.000  
J04                                                                  40581358.133   166173873.721          78.951          39.000  
> 2025 10 27 02 05 11.0050000  0 22                     
G23  21612356.854   113573736.769         189.381          41.000    21612354.222    88498965.301         147.796          39.000  
G25  23829702.064   125225928.1662       2217.786          41.000    23829701.772    97578655.814        1727.595          32.000  
G24  23202881.287   121931958.136       -3498.442          39.000    23202881.132    95011921.624       -2725.607          34.000  
G18  23137310.218   121587385.0413      -3168.316          25.000    23137358.047    94743589.601       -2467.872          28.000  
C08  37870734.496   197202842.746         271.354          39.000    37870725.180   152489718.333         210.188          41.000  
C38  37441255.891   194966466.798         -23.322          41.000                                                                  
C13  38082678.243   198306520.406         366.861          39.000    38082680.840   153343169.515         283.728          35.000  
C09  38694954.606   201494782.6853        -24.595          27.000    38694959.085   155808554.704         -19.019          36.000  
C16  37919037.000   197454379.471        -364.913          41.000    37919032.415   152684235.053        -282.506          32.000  
C23  23577189.854   122772616.968         368.953          46.000                                                                  
R09  21305521.615   113770297.285        1261.297          45.000    21305516.938    88487988.493         981.019          40.000  
R22  22982893.131   122684236.4742       -941.235          27.000                                                                  
G12  24238517.342   127374259.299         965.260          41.000    24238516.846    99252675.971         752.833          30.000  
G28  24909437.694                        2462.978          20.000                                                                  
E21  28111595.514   147727423.159        1792.111          34.000    28111609.453   113193803.342        1373.613          32.000  
E27  27862621.421   146419065.840         538.901          38.000    27862630.572                         413.714          20.000  
C37  25719855.641   133930039.653        2484.281          33.000                                                                  
C39  37372632.632   194609106.347        -525.043          40.000                                                                  
C06  37525204.544   195403574.727        -170.045          37.000    37525195.301   151098409.093        -131.431          35.000  
J03  37378929.529   196427582.060        -652.472          41.000    37378927.501   153060458.356        -507.593          31.000  
J04                                                                  40581339.700   166173794.657          78.912          36.000  
R21                                                                  23661758.102    98481345.2312      -3172.934          25.000  
> 2025 10 27 02 05 12.0050000  0 22                     
G23  21612320.888   113573547.384         189.532          38.000    21612318.121    88498817.679         147.250          41.000  
G25  23829280.011   125223710.4512       2217.892          39.000    23829279.276    97576927.660        1728.040          32.000  
G24  23203547.120   121935456.522       -3497.736          35.000    23203546.836    95014647.756       -2725.938          33.000  
G18  23137909.324                       -3171.943          23.000    23137956.415    94746058.844       -2469.625          27.000  
C08  37870682.294   197202571.065         271.506          36.000    37870672.077   152489508.193         209.957          39.000  
C38  37441260.834   194966490.304         -23.657          39.000                                                                  
C13  38082607.862   198306153.792         366.657          37.000    38082609.362   153342885.985         283.703          34.000  
C09  38694957.217   201494807.3262        -24.981          27.000    38694964.177   155808573.806         -18.981          35.000  
C16  37919107.106   197454744.625        -365.314          38.000    37919102.444   152684517.344        -282.166          35.000  
C23  23577118.795   122772248.203         368.672          43.000                                                                  
R09  21305285.208   113769036.192        1260.907          40.000    21305280.716    88487007.606         981.163          39.000  
R22  22983058.990   122685178.3852       -942.058          26.000                                                                  
G12  24238333.576   127373293.918         965.093          37.000    24238333.027    99251923.788         752.286          30.000  
G28  24908933.187                        2462.978          20.000                                                                  
E21  28111254.765   147725630.782        1794.024          31.000    28111268.259   113192430.009        1374.443          33.000  
E27  27862518.741   146418527.028         538.916          37.000    27862525.791                         412.461          31.000  
C37  25719378.522   133927555.778        2483.168          32.000                                                                  
C39  37372733.532   194609631.618        -525.195          36.000                                                                  
C06  37525237.145   195403744.790        -170.447          34.000    37525228.053   151098540.572        -131.477          35.000  
J03  37379053.874   196428234.694        -652.747          38.000    37379051.674   153060966.927        -508.014          31.000  
J04                                                                  40581320.340   166173715.384          79.000          36.000  
R21                                                                  23662515.772    98484517.8542      -3172.783          26.000  
> 2025 10 27 02 05 13.0050000  0 22                     
G23  21612284.915   113573358.292         188.175          39.000    21612282.097    88498670.377         146.813          37.000  
G25  23828857.983   125221492.3201       2217.464          39.000    23828857.187    97575199.621        1727.393          32.000  
G24  23204213.032   121938955.446       -3499.640          39.000    23204212.727    95017374.069       -2726.716          34.000  
G18  23138533.075   121593811.1413      -3169.072          33.000    23138558.510                       -2468.196          26.000  
C08  37870630.049   197202299.336         270.796          40.000    37870619.827   152489298.121         209.907          39.000  
C38  37441264.521   194966513.682         -23.737          40.000                                                                  
C13  38082537.550   198305787.235         366.084          43.000    38082537.323   153342602.524         283.392          38.000  
C16  37919177.108   197455109.786        -365.676          42.000    37919172.664   152684799.663        -282.537          37.000  
C23  23577048.012   122771879.774         367.851          43.000                                                                  
R21  23663269.920                       -4079.791          33.000    23663276.737    98487691.1422      -3173.975          32.000  
R09  21305048.992   113767775.524        1260.304          38.000    21305044.650    88486027.219         979.823          40.000  
R22  22983228.544   122686121.1032       -943.300          25.000                                                                  
G12  24238149.897   127372328.913         964.365          43.000    24238149.231    99251171.874         751.726          31.000  
S37  37898258.769   199156693.1693       -537.234          42.000  
E21  28110914.284   147723838.441        1792.247          38.000    28110927.174   113191056.633        1373.552          34.000  
E27  27862415.945   146417988.607         537.998          40.000    27862423.932   112190435.4421        412.656          31.000  
C37  25718902.235   133925071.971        2483.467          39.000                                                                  
C39  37372834.315   194610156.969        -525.775          43.000                                                                  
C06  37525269.708   195403914.853        -170.652          36.000    37525259.858   151098672.108        -131.269          38.000  
J03  37379178.033   196428887.372        -652.661          37.000    37379175.750   153061475.492        -508.618          37.000  
C09                                                                  38694968.148   155808592.801         -18.515          31.000  
J04                                                                  40581300.697   166173636.039          79.174          36.000  
> 2025 10 27 02 05 14.0050000  0 24                     
G23  21612249.044   113573170.175         187.334          41.000    21612245.477    88498523.857         146.495          37.000  
G25  23828436.107   125219275.332        2216.910          41.000    23828436.017    97573472.071        1727.305          32.000  
G24  23204878.961   121942454.920       -3500.262          43.000    23204879.057    95020100.810       -2726.674          31.000  
G18  23139158.988   121597100.2743      -3170.463          40.000    23139166.957                       -2472.720          25.000  
C08  37870577.965   197202028.079         270.762          39.000    37870567.917   152489088.395         209.407          41.000  
C38  37441268.942   194966537.688         -25.018          39.000                                                                  
C13  38082467.237   198305420.961         365.520          45.000    38082466.195   153342319.344         282.511          38.000  
C09  38694977.309   201494900.9593        -27.999          35.000    38694972.408                         -19.740          32.000  
C16  37919247.237   197455475.476        -367.424          42.000    37919243.058   152685082.532        -282.570          29.000  
C23  23576977.399   122771512.441         365.521          44.000                                                                  
R21  23664037.595   126631016.5343      -4081.620          36.000    23664038.902    98490864.5472      -3174.439          29.000  
R09  21304812.999   113766516.296        1258.371          39.000    21304808.834    88485047.834         978.446          35.000  
R22  22983402.118   122687065.0252       -946.453          28.000                                                                  
G12  24237966.508   127371364.802         962.871          46.000    24237965.500    99250420.606         749.611          32.000  
S37  37898360.980   199157230.4332       -537.665          43.000  
E21  28110575.094   147722046.458        1791.282          40.000    28110585.958   113189683.688        1370.371          35.000  
E27  27862313.620   146417450.865         537.017          42.000    27862320.107   112190023.311         411.816          28.000  
C37  25718425.838   133922588.707        2482.895          39.000                                                                  
C39  37372935.168   194610682.782        -525.500          40.000                                                                  
C06  37525302.294   195404085.384        -171.308          37.000    37525292.312   151098804.069        -132.051          33.000  
J03  37379302.282   196429540.659        -654.987          40.000    37379300.197   153061984.557        -510.254          38.000  
J04                                                                  40581281.059   166173557.015          78.356          36.000  
R16                                                                  22891095.981                       -2025.898          24.000  
G28                                                                  24907948.671                        1916.038          24.000  
> 2025 10 27 02 05 15.0050000  0 24                     
G23  21612213.522   113572983.171         188.016          47.000    21612209.874    88498378.015         146.054          39.000  
G25  23828014.303   125217058.996        2217.087          40.000    23828014.529    97571745.088        1727.666          32.000  
G24  23205544.883   121945954.872       -3499.873          28.000    23205545.283    95022828.4171      -2726.288          29.000  
G18  23139767.652   121600299.2572      -3168.833          40.000    23139771.479                       -2468.502          25.000  
C08  37870525.778   197201757.407         271.554          43.000    37870515.937   152488879.039         209.742          40.000  
C38  37441273.578   194966562.380         -23.456          43.000                                                                  
C13  38082397.053   198305055.243         366.498          44.000    38082395.880   153342036.519         283.570          38.000  
C09  38694984.054   201494935.3713        -26.798          32.000    38694977.478   155808639.2043        -19.814          30.000  
C16  37919317.489   197455841.914        -365.848          39.000    37919313.420   152685365.954        -282.756          37.000  
C23  23576907.028   122771146.020         367.332          46.000                                                                  
R21  23664803.617   126635097.391       -4078.127          35.000    23664801.360    98494037.9972      -3172.744          28.000  
R09  21304577.258   113765258.318        1259.188          44.000    21304573.209    88484069.575         978.148          30.000  
R22  22983575.551   122688009.9432       -943.496          29.000                                                                  
G12  24237783.124   127370401.434         963.934          44.000    24237782.330    99249669.952         750.999          33.000  
S37  37898463.410   199157768.2852       -536.232          43.000  
G28  24907459.713                        2462.978          27.000                                                                  
E21  28110235.596   147720254.870        1793.118          37.000    28110245.054   113188310.716        1374.311          34.000  
E27  27862211.409   146416913.757         538.171          41.000    27862217.599                         404.867          18.000  
C37  25717949.093   133920106.196        2481.713          37.000                                                                  
C39  37373036.195   194611209.436        -526.044          43.000                                                                  
C06  37525335.043   195404256.860        -173.384          28.000    37525325.318   151098936.552        -131.771          32.000  
J03  37379426.550   196430194.321        -653.131          41.000    37379424.558   153062493.964        -508.392          37.000  
J04                                                                  40581261.699   166173482.2371         79.354          38.000  
R16                                                                  22891581.756                       -2024.936          24.000  
> 2025 10 27 02 05 16.0050000  0 25                     
G23  21612177.834   113572795.532         187.695          46.000    21612174.136    88498231.847         146.309          39.000  
G25  23827592.346   125214842.046        2216.127          39.000    23827592.684    97570017.569        1727.710          32.000  
G24  23206208.173   121949446.6523      -3495.533          31.000    23206211.215    95025555.188       -2725.155          31.000  
G18  23140372.615   121603477.8723      -3171.097          37.000    23140372.569    94755956.4591      -2469.836          25.000  
C08  37870473.440   197201485.767         273.009          40.000    37870463.837   152488669.016         210.133          39.000  
C38  37441277.931   194966586.215         -23.474          38.000                                                                  
C13  38082326.736   198304688.668         367.006          43.000    38082325.571   153341753.088         283.554          35.000  
C09  38694988.119   201494960.5772        -26.535          31.000    38694980.944                         -21.286          26.000  
C16  37919387.558   197456207.672        -365.822          36.000    37919383.827   152685648.730        -282.633          37.000  
C23  23576836.556   122770779.226         367.196          42.000                                                                  
R23  24997089.631                        1365.565          22.000                                                                  
R21  23665562.330   126639177.579       -4080.893          30.000    23665564.048    98497211.2592      -3172.505          28.000  
R09  21304341.409   113764000.179        1258.213          40.000    21304337.668    88483090.944         978.307          25.000  
R16  22892075.779   122285359.6323      -2601.356          28.000                                                                  
G12  24237599.751   127369437.603         963.481          44.000    24237598.827    99248918.920         750.866          32.000  
S37  37898565.540   199158304.6173       -536.411          43.000  
E21  28109894.706   147718462.407        1793.553          38.000    28109903.983   113186937.276        1375.059          33.000  
E27  27862109.162   146416376.061         538.084          42.000    27862116.663                         408.796          20.000  
C37  25717471.999   133917622.809        2484.302          33.000                                                                  
C39  37373137.028   194611735.265        -525.946          40.000                                                                  
C06  37525367.840   195404427.577        -173.281          29.000    37525358.033   151099068.534        -131.906          31.000  
E29  25953376.846   136385915.229       -1297.612          40.000                                                                  
J03  37379550.788   196430847.519        -653.821          37.000    37379549.019   153063002.908        -508.972          37.000  
E26  26667483.960   140138573.563       -3224.083          38.000                                                                  
J04                                                                  40581242.130   166173402.715          79.866          36.000  
> 2025 10 27 02 05 17.0050000  0 26                     
G23  21612142.204   113572608.041         187.193          43.000    21612138.494    88498085.767         145.134          38.000  
G25  23827170.468   125212624.965        2216.085          40.000    23827170.946    97568290.025        1726.156          28.000  
G24  23206877.618   121952945.9602      -3500.417          35.000    23206877.205    95028281.958       -2727.532          35.000  
G18  23140972.698   121606631.8633      -3169.023          31.000    23140976.264    94758428.4381      -2471.200          26.000  
C08  37870421.122   197201213.969         271.012          39.000    37870411.662   152488458.816         209.763          37.000  
C38  37441282.398   194966609.772         -24.261          39.000                                                                  
C13  38082256.443   198304321.913         366.020          36.000    38082255.266   153341469.568         283.552          30.000  
C09  38694990.624   201494985.5902        -25.456          33.000    38694985.770   155808672.2493        -19.814          31.000  
C16  37919457.637   197456573.189        -366.190          36.000    37919453.868                        -283.147          22.000  
C23  23576766.122   122770412.721         365.776          44.000                                                                  
R23  24996833.662                        1441.599          20.000                                                                  
R21  23666327.817   126643257.2282      -4080.276          39.000    23666326.952    98500383.8331      -3173.881          27.000  
R09  21304105.777   113762742.523        1256.875          43.000    21304101.304    88482109.1133        978.170          34.000  
R22  22983918.236                        -946.308          26.000                                                                  
R16  22892561.729   122287962.2582      -2603.852          28.000                                                                  
G12  24237416.256   127368473.907         962.890          40.000    24237415.204                         750.756          24.000  
S37  37898667.625   199158841.3142       -536.453          38.000  
E21  28109554.020   147716669.584        1791.846          36.000    28109562.705   113185563.704        1372.613          31.000  
E27  27862007.159   146415838.429         536.655          38.000    27862014.047   112188784.2071        411.152          31.000  
C37  25716994.911   133915139.539        2483.253          40.000                                                                  
C39  37373237.873   194612260.735        -526.691          33.000                                                                  
C06  37525400.426   195404597.887        -170.075          34.000    37525390.829   151099200.445        -133.407          24.000  
E29  25953623.052   136387213.663       -1298.584          33.000                                                                  
J03  37379675.055   196431500.393        -653.229          37.000    37379673.348   153063511.627        -508.624          31.000  
E26  26668100.085   140141797.448       -3224.675          36.000                                                                  
J04                                                                  40581222.480   166173322.834          79.428          38.000  
> 2025 10 27 02 05 18.0050000  0 24                     
G23  21612106.789   113572421.468         185.616          38.000    21612103.104    88497940.388         145.114          34.000  
G25  23826748.672   125210408.428        2215.843          35.000    23826749.403    97566562.922        1726.146          28.000  
G24  23207543.806   121956446.0242      -3501.490          32.000    23207543.240    95031009.312       -2728.318          31.000  
G18  23141576.356   121609804.0882      -3171.264          35.000    23141578.780    94760898.828       -2470.895          29.000  
C08  37870369.046   197200942.576         270.930          34.000    37870359.528   152488249.030         209.908          31.000  
C38  37441287.249   194966633.811         -24.731          38.000                                                                  
C13  38082186.113   198303955.550         365.752          33.000    38082184.961   153341186.303         282.619          28.000  
C09  38694994.392   201495011.0392        -26.092          32.000    38694990.173   155808691.9472        -19.525          31.000  
C16  37919527.921   197456939.252        -366.724          35.000    37919524.940                        -281.729          20.000  
C23  23576695.859   122770047.044         364.794          44.000                                                                  
R21  23667090.289   126647337.6212      -4080.802          36.000    23667089.610    98503557.469       -3173.884          28.000  
R09  21303870.428   113761485.925        1255.529          44.000    21303865.969    88481131.8032        976.164          34.000  
R16  22893049.252   122290566.2372      -2605.394          28.000                                                                  
G12  24237233.063   127367511.122         962.186          39.000    24237232.190    99247413.6971        749.463          27.000  
S37  37898769.817   199159378.3122       -537.540          38.000  
E21  28109213.340   147714877.220        1791.720          38.000    28109221.859   113184190.321        1372.420          29.000  
E27  27861905.201   146415301.647         535.738          38.000    27861912.385   112188372.810         409.895          33.000  
C37  25716517.934   133912656.631        2482.246          39.000                                                                  
C39  37373338.858   194612786.996        -527.301          31.000                                                                  
C06  37525433.091   195404768.861        -171.962          30.000    37525423.827   151099332.524        -132.667          25.000  
E29  25953872.439   136388512.792       -1300.136          30.000                                                                  
J03  37379799.402   196432153.767        -654.144          37.000    37379797.701   153064020.744        -509.570          31.000  
E26  26668711.709   140145021.864       -3225.129          36.000                                                                  
J04                                                                  40581203.028   166173243.249          79.033          35.000  
> 2025 10 27 02 05 19.0050000  0 24                     
G23  21612071.561   113572236.240         184.430          37.000    21612067.834    88497796.068         143.752          34.000  
G25  23826327.115   125208193.075        2215.150          36.000    23826327.922    97564836.624        1726.292          27.000  
G24  23208209.552   121959947.5362      -3502.544          32.000    23208209.715    95033737.735       -2729.346          31.000  
G18  23142180.707   121612979.7902      -3172.285          34.000    23142184.409    94763370.214       -2471.118          30.000  
C08  37870317.147   197200672.194         270.640          35.000    37870307.724   152488039.960         209.061          33.000  
C38  37441292.130   194966658.781         -25.146          37.000                                                                  
C13  38082116.079   198303589.984         366.176          32.000    38082114.791   153340895.6683        282.461          26.000  
C09  38695000.824   201495037.6302        -26.518          31.000    38694995.655   155808712.5002        -20.771          31.000  
C16  37919598.407   197457306.358        -367.131          34.000    37919596.687                        -293.277          19.000  
C23  23576625.786   122769682.754         363.805          42.000                                                                  
R21  23667852.776   126651419.147       -4082.202          36.000    23667852.281    98506732.004       -3175.085          28.000  
R09  21303635.349   113760230.967        1254.464          44.000    21303630.579    88480153.7213        975.822          34.000  
R16  22893534.974   122293153.7503      -2605.615          28.000                                                                  
G12  24237050.203   127366549.564         961.275          38.000    24237048.745    99246664.529         748.659          28.000  
S37  37898872.157   199159916.1942       -537.964          39.000  
E21  28108872.647   147713085.751        1791.892          35.000    28108880.827   113182817.781        1372.304          29.000  
E27  27861803.508   146414766.011         535.358          36.000    27861809.935   112187962.359         409.962          33.000  
C37  25716041.207   133910174.831        2481.372          37.000                                                                  
C39  37373440.180   194613314.185        -527.509          32.000                                                                  
C06  37525465.925   195404940.824        -172.772          30.000    37525457.022   151099465.459        -132.141          25.000  
E29  25954120.162   136389812.643       -1300.786          31.000                                                                  
J03  37379923.918   196432808.114        -654.633          38.000    37379922.418   153064530.684        -510.620          31.000  
E26  26669325.171   140148247.374       -3225.941          36.000                                                                  
J04                                                                  40581183.608   166173164.265          78.785          35.000  
> 2025 10 27 02 05 20.0050000  0 25                     
G23  21612036.685   113572052.407         183.667          36.000    21612032.849    88497652.827         142.812          34.000  
G25  23825905.797   125205978.866        2213.804          36.000    23825906.690    97563111.231        1725.102          28.000  
G24  23208876.569   121963450.100       -3502.992          30.000    23208876.285    95036467.005       -2728.857          31.000  
G18  23142784.579   121616152.8272      -3173.560          35.000    23142787.056    94765842.710       -2472.920          30.000  
C08  37870265.227   197200402.813         269.269          35.000    37870256.022   152487831.622         209.073          33.000  
C38  37441297.148   194966684.869         -26.459          38.000                                                                  
C13  38082045.886   198303225.494         364.649          33.000    38082044.807   153340613.7602        282.074          26.000  
C09  38695005.570   201495065.2712        -29.048          31.000    38695000.609   155808733.7922        -20.754          30.000  
C16  37919668.954   197457674.610        -368.838          33.000    37919666.647                        -284.907          19.000  
C23  23576555.893   122769319.960         362.443          42.000                                                                  
R23  24996033.099                        1441.599          14.000                                                                  
R21  23668616.221   126655501.839       -4083.045          36.000    23668615.144    98509907.379       -3175.051          29.000  
R09  21303400.749   113758977.793        1252.675          45.000    21303394.779    88479179.0392        974.250          34.000  
R16  22894020.807   122295761.0952      -2607.928          28.000                                                                  
G12  24236867.560   127365589.423         959.993          38.000    24236865.664    99245916.308         748.036          28.000  
S37  37898974.723   199160455.0762       -538.893          39.000  
E21  28108531.759   147711295.221        1790.105          35.000    28108540.205   113181445.762        1371.976          28.000  
E27  27861701.754   146414231.636         533.968          36.000    27861707.618   112187552.883         409.314          33.000  
C37  25715564.724   133907694.175        2480.561          38.000                                                                  
C39  37373541.678   194613842.479        -528.601          32.000                                                                  
C06  37525498.788   195405113.929        -173.564          31.000    37525490.207   151099599.279        -133.017          25.000  
E29  25954368.072   136391113.404       -1301.213          30.000                                                                  
J03  37380048.597   196433463.528        -655.475          38.000    37380047.097   153065041.366        -510.046          30.000  
E26  26669939.792   140151474.024       -3226.956          36.000                                                                  
J04                                                                  40581164.442   166173085.966          78.822          34.000  
> 2025 10 27 02 05 21.0050000  0 25                     
G23  21612001.778   113571869.029         182.848          36.000    21611998.028    88497509.927         142.482          34.000  
G25  23825484.604   125203764.763        2213.534          37.000    23825485.375    97561386.021        1724.837          28.000  
G24  23209543.046   121966953.011       -3503.682          30.000    23209542.769    95039196.551       -2729.821          31.000  
G18  23143388.679   121619326.1942      -3173.478          34.000    23143388.909    94768315.515       -2473.279          30.000  
C08  37870213.542   197200133.457         268.896          34.000    37870204.364   152487623.384         208.120          33.000  
C38  37441302.219   194966711.005         -26.654          38.000                                                                  
C13  38081976.018   198302860.972         364.588          32.000    38081974.994   153340331.973         281.298          26.000  
C09  38695010.811   201495093.002         -28.364          30.000    38695005.527   155808755.260         -21.410          31.000  
C16  37919739.707   197458042.922        -368.535          33.000    37919738.224                        -290.020          19.000  
C23  23576486.256   122768957.674         361.650          43.000                                                                  
R23  24995770.135                        1441.599          13.000                                                                  
R21  23669379.035   126659584.705       -4083.314          36.000    23669378.135    98513082.926       -3175.340          29.000  
R09  21303166.139   113757725.358        1251.905          45.000    21303161.640    88478204.4161        973.952          34.000  
R16  22894507.769   122298369.180       -2608.747          28.000                                                                  
G12  24236684.935   127364629.670         959.038          38.000    24236683.589    99245168.470         747.221          28.000  
S37  37899077.221   199160993.916        -539.172          38.000  
E21  28108191.091   147709504.639        1790.432          35.000    28108199.580   113180073.755        1371.992          28.000  
E27  27861600.115   146413697.535         533.880          36.000    27861606.432   112187143.680         408.924          33.000  
C37  25715088.256   133905213.692        2479.792          37.000                                                                  
C39  37373643.104   194614370.962        -530.200          32.000                                                                  
C06  37525532.241   195405287.114        -173.553          32.000    37525523.510   151099733.301        -134.177          26.000  
E29  25954615.574   136392414.122       -1300.517          30.000                                                                  
J03  37380173.269   196434119.022        -655.646          37.000    37380171.989   153065552.147        -511.420          31.000  
E26  26670554.369   140154700.885       -3227.387          35.000                                                                  
J04                                                                  40581145.379   166173007.642          78.099          34.000  
> 2025 10 27 02 05 22.0050000  0 25                     
G23  21611966.733   113571685.032         184.499          36.000    21611963.123    88497366.571         143.429          34.000  
G25  23825063.099   125201549.810        2215.442          37.000    23825063.884    97559660.109        1726.494          27.000  
G24  23210209.517   121970455.264       -3500.934          29.000    23210209.177    95041925.488       -2728.255          30.000  
G18  23143992.556   121622498.9132      -3172.325          34.000    23143991.723    94770787.713       -2471.502          30.000  
C08  37870161.782   197199863.062         271.726          34.000    37870152.521   152487414.306         209.243          32.000  
C38  37441307.220   194966736.158         -24.286          38.000                                                                  
C13  38081906.032   198302495.431         365.796          32.000    38081904.858   153340050.2183        283.699          26.000  
C09  38695015.895   201495119.781         -26.440          30.000    38695010.868   155808776.038         -20.224          31.000  
C16  37919810.209   197458410.311        -366.079          34.000    37919807.707                        -282.132          21.000  
C23  23576416.647   122768594.818         363.437          44.000                                                                  
R23  24995501.770                        1441.599          11.000                                                                  
R21  23670141.804   126663666.709       -4080.927          36.000    23670140.849    98516257.823       -3174.405          28.000  
R09  21302931.454   113756472.561        1253.314          45.000    21302928.399    88477230.050         974.243          34.000  
R16  22894994.935   122300976.886       -2607.730          28.000                                                                  
G12  24236502.165   127363669.234         961.327          40.000    24236503.597    99244420.062         748.726          28.000  
S37  37899179.534   199161531.705        -537.140          38.000  
E21  28107850.130   147707713.032        1792.223          35.000    28107858.662   113178700.944        1373.120          28.000  
E27  27861498.296   146413162.716         535.487          36.000    27861504.560   112186733.848         410.646          33.000  
C37  25714611.706   133902732.313        2481.799          37.000                                                                  
C39  37373744.348   194614898.422        -527.124          31.000                                                                  
C06  37525565.247   195405459.477        -171.758          31.000    37525556.617   151099866.571        -132.944          25.000  
E29  25954862.957   136393713.772       -1298.765          30.000                                                                  
J03  37380297.721   196434773.571        -653.278          37.000    37380296.665   153066062.120        -509.332          31.000  
E26  26671168.407   140157926.801       -3225.076          35.000                                                                  
J04                                                                  40581126.015   166172928.388          79.403          35.000  
> 2025 10 27 02 05 23.0050000  0 24                     
G23  21611931.518   113571500.181         184.550          36.000    21611927.971    88497222.557         143.447          33.000  
G25  23824641.434   125199333.764        2215.421          36.000    23824642.275    97557933.376        1726.377          27.000  
G24  23210875.660   121973956.415       -3501.671          31.000    23210875.377    95044653.696       -2728.608          29.000  
G18  23144596.200   121625670.6332      -3171.679          32.000    23144596.754    94773259.192       -2471.143          31.000  
C08  37870109.561   197199591.443         271.566          33.000    37870100.442   152487204.303         209.670          32.000  
C38  37441312.033   194966760.137         -24.200          38.000                                                                  
C13  38081835.640   198302128.558         366.605          33.000    38081834.311   153339766.4882        284.213          26.000  
C09  38695020.929   201495145.392         -25.790          29.000    38695016.304   155808795.828         -19.788          30.000  
C16  37919880.482   197458776.636        -366.965          33.000    37919877.989                        -285.491          22.000  
C23  23576346.842   122768231.191         362.911          43.000                                                                  
R21  23670904.184   126667747.495       -4080.854          36.000    23670903.531    98519431.806       -3174.376          29.000  
R09  21302696.786   113755219.189        1252.795          44.000    21302693.658    88476255.291         974.173          33.000  
R16  22895485.537                       -2608.665          26.000                                                                  
G12  24236319.136   127362707.921         960.768          39.000    24236319.693    99243671.074         748.637          27.000  
S37  37899281.784   199162068.177        -536.599          38.000  
E21  28107508.966   147705920.019        1793.114          35.000    28107517.372   113177327.076        1374.330          28.000  
E27  27861396.304   146412626.889         535.557          36.000    27861402.763   112186323.306         410.497          34.000  
C37  25714134.950   133900249.804        2481.979          37.000                                                                  
C39  37373845.449   194615424.847        -527.368          31.000                                                                  
C06  37525597.896   195405630.590        -170.693          30.000    37525589.399   151099998.870        -132.433          24.000  
E29  25955110.304   136395012.099       -1298.599          29.000                                                                  
J03  37380422.013   196435426.861        -653.186          37.000    37380421.104   153066571.245        -509.747          30.000  
E26  26671781.930   140161151.634       -3225.164          34.000                                                                  
J04                                                                  40581106.284   166172848.066          80.250          34.000  
> 2025 10 27 02 05 24.0050000  0 25                     
G23  21611896.499   113571316.263         182.739          36.000    21611892.949    88497079.197         142.304          31.000  
G25  23824219.893   125197118.470        2213.743          37.000    23824220.851    97556207.139        1724.413          26.000  
G24  23211542.066   121977458.207       -3504.406          30.000    23211541.720    95047382.357       -2730.445          30.000  
G18  23145200.001   121628843.3272      -3174.210          33.000    23145202.343    94775731.354       -2473.844          30.000  
C08  37870057.471   197199320.377         269.705          34.000    37870048.438   152486994.556         208.729          32.000  
C38  37441316.772   194966784.697         -26.129          37.000                                                                  
C13  38081765.347   198301762.238         364.644          30.000    38081764.051   153339483.2052        282.001          27.000  
C09  38695026.242   201495171.780         -28.278          30.000    38695021.420   155808816.134         -22.115          30.000  
C16  37919950.956   197459143.611        -369.022          27.000    37919948.862                        -282.102          21.000  
C23  23576277.148   122767868.583         360.702          42.000                                                                  
R23  24994960.125                        1441.599          11.000                                                                  
R21  23671666.961   126671829.036       -4082.911          32.000    23671667.133                1      -3176.927          20.000  
R09  21302462.368   113753967.091        1249.974          43.000    21302458.844                1        967.391          27.000  
R16  22895977.096   122306199.3763      -2610.196          27.000                                                                  
G12  24236136.370   127361747.507         959.008          39.000    24236136.188                         746.712          25.000  
S37  37899384.086   199162605.163        -538.142          35.000  
E21  28107167.600   147704127.559        1791.152          31.000    28107176.357   113175953.733        1371.932          29.000  
E27  27861294.364   146412091.873         532.961          37.000    27861300.862   112185913.455         408.948          32.000  
C37  25713658.243   133897768.044        2480.429          37.000                                                                  
C39  37373947.491                        -523.475          23.000                                                                  
C06  37525630.933   195405802.518        -172.761          31.000    37525622.531                1       -134.705          23.000  
E29  25955357.500   136396310.804       -1300.320          31.000                                                                  
J03  37380546.432   196436080.813        -655.554          34.000    37380545.691   153067080.800        -510.895          30.000  
E26  26672395.871   140164377.271       -3227.464          33.000                                                                  
J04                                                                  40581086.697   166172768.010          78.993          33.000  
> 2025 10 27 02 05 25.0050000  0 24                     
G23  21611861.687   113571133.592         182.772          39.000    21611858.143    88496936.820         142.377          32.000  
G25  23823798.537   125194903.951        2214.844          37.000    23823799.482    97554481.526        1725.106          26.000  
G24  23212208.595   121980961.080       -3502.472          32.000    23212208.197    95050111.889       -2729.207          31.000  
G18  23145804.028   121632017.045       -3173.927          31.000    23145806.231    94778204.413       -2472.888          33.000  
C08  37870005.510   197199050.085         270.258          34.000    37869996.601   152486785.609         209.342          34.000  
C38  37441321.716   194966810.016         -25.079          35.000                                                                  
C13  38081695.000   198301396.521         366.750          29.000    38081693.889   153339200.5082        283.391          28.000  
C09  38695031.631   201495198.878         -27.131          29.000    38695026.862   155808837.022         -20.957          30.000  
C16  37920022.148   197459505.4493       -368.206          28.000    37920020.472                        -284.432          23.000  
C23  23576207.842   122767507.126         361.266          38.000                                                                  
R21  23672429.875   126675911.342       -4082.005          34.000    23672431.184                       -3175.368          23.000  
R09  21302228.121   113752716.423        1250.578          42.000    21302223.803    88474311.1123        972.554          30.000  
R16  22896467.641   122308820.2442      -2609.718          27.000                                                                  
G12  24235953.889   127360788.173         959.310          38.000    24235953.967                         746.268          26.000  
S37  37899486.401   199163142.831        -537.161          35.000  
E21  28106826.480   147702335.727        1792.153          33.000    28106835.520   113174580.708        1373.374          34.000  
E27  27861192.754   146411557.904         534.424          37.000    27861199.666                         410.057          24.000  
C37  25713181.684   133895287.082        2481.338          35.000                                                                  
C39  37374050.089                        -522.941          19.000                                                                  
C06  37525664.109   195405975.231        -172.798          29.000    37525653.907                        -124.776          20.000  
E29  25955604.859   136397610.283       -1298.708          31.000                                                                  
J03  37380670.942   196436735.518        -654.016          34.000    37380670.357   153067590.938        -509.961          33.000  
E26  26673010.016   140167603.626       -3226.443          33.000                                                                  
J04                                                                  40581067.202   166172688.459          80.482          34.000  
> 2025 10 27 02 05 26.0050000  0 25                     
G23  21611826.936   113570950.648         187.124          41.000    21611823.298    88496794.093         144.000          32.000  
G25  23823377.084   125192689.217        2217.271          38.000    23823378.295    97552755.740        1727.697          27.000  
G24  23212875.172   121984463.766       -3501.830          34.000    23212874.661    95052841.218       -2727.775          33.000  
G18  23146408.267   121635190.758       -3170.915          31.000    23146410.138    94780677.366       -2471.466          32.000  
C08  37869953.456   197198779.083         274.969          36.000    37869944.619   152486576.017         212.091          35.000  
C38  37441326.564   194966834.646         -19.977          38.000                                                                  
C13  38081624.742   198301030.106         371.165          31.000    38081623.655   153338917.1252        288.555          29.000  
C09  38695036.548   201495225.711         -25.398          29.000    38695032.090   155808857.789         -20.126          30.000  
C16  37920091.972   197459872.6072       -363.466          29.000    37920090.643   152688491.6173       -281.253          26.000  
C23  23576138.412   122767145.489         365.041          41.000                                                                  
R23  24994419.262                        1441.599          11.000                                                                  
R21  23673192.724   126679993.334       -4080.538          35.000    23673194.267                       -3172.334          24.000  
R09  21301993.921   113751465.777        1254.805          40.000    21301987.111    88473338.5532        973.073          32.000  
R16  22896957.929   122311430.3262      -2607.336          28.000                                                                  
G12  24235771.276   127359828.590         964.408          37.000    24235772.036                         747.451          26.000  
S37  37899588.576   199163679.832        -531.913          35.000  
E21  28106485.445   147700543.467        1794.712          34.000    28106494.486   113173207.430        1375.411          30.000  
E27  27861090.800   146411023.472         538.405          36.000    27861097.456                         412.249          23.000  
C37  25712705.132   133892805.996        2482.740          36.000                                                                  
C39  37374151.873                        -520.936          20.000                                                                  
C06  37525697.044   195406147.208        -167.038          29.000    37525685.393                        -130.532          19.000  
E29  25955852.104   136398909.023       -1294.182          34.000                                                                  
J03  37380795.326   196437389.866        -650.867          35.000    37380794.936   153068100.931        -509.308          35.000  
E26  26673624.285   140170829.967       -3224.648          30.000                                                                  
J04                                                                  40581047.522   166172608.106          86.248          29.000  
> 2025 10 27 02 05 27.0050000  0 25                     
G23  21611792.272   113570768.116         183.234          41.000    21611788.674    88496652.107         141.758          32.000  
G25  23822955.507   125190474.339        2215.825          34.000    23822956.779    97551029.794        1726.221          28.000  
G24  23213538.937   121987970.0933      -3502.084          34.000    23213539.713    95055564.4651      -2729.338          34.000  
G18  23147012.264   121638364.381       -3172.771          35.000    23147013.911    94783150.263       -2472.538          36.000  
C08  37869901.669   197198508.166         272.323          38.000    37869892.613   152486366.615         209.608          35.000  
C38  37441331.280   194966859.503         -23.352          36.000                                                                  
C13  38081554.506   198300663.815         367.026          33.000    38081553.423   153338633.884         284.032          35.000  
C09  38695042.249   201495238.3553        -26.736          28.000    38695037.025   155808878.305         -19.439          31.000  
C16  37920162.828   197460239.948        -367.197          29.000    37920161.234                        -283.755          26.000  
C23  23576069.286   122766784.428         361.569          39.000                                                                  
R09  21301759.839   113750215.980        1250.515          36.000    21301753.339    88472365.8741        972.265          36.000  
R16  22897448.442                       -2610.145          25.000                                                                  
G12  24235588.731   127358869.434         959.975          38.000    24235587.809    99240679.8551        748.301          29.000  
S37  37899690.679   199164216.853        -535.887          34.000  
E21  28106144.591   147698750.785        1793.706          33.000    28106153.489   113171833.769        1373.380          30.000  
E27  27860989.009   146410489.424         534.417          33.000    27860996.870   112184689.2601        409.708          29.000  
C37  25712231.832   133890337.8543       2483.263          33.000                                                                  
C39  37374252.489   194617540.1173       -527.197          30.000                                                                  
C06  37525730.677   195406326.5493       -170.751          28.000    37525720.007                        -132.385          30.000  
E29  25956099.018   136400207.720       -1298.313          31.000                                                                  
J03  37380919.581   196438043.968        -653.406          35.000    37380919.254   153068610.503        -509.399          37.000  
E26  26674238.759   140174055.912       -3226.137          32.000                                                                  
J04                                                                  40581028.208   166172528.136          80.518          32.000  
R21                                                                  23673956.799    98532096.2163      -3174.154          26.000  
G28                                                                  24901852.433                        1914.926          17.000  
> 2025 10 27 02 05 28.0050000  0 24                     
G23  21611757.470   113570585.181         185.197          37.000    21611753.784    88496509.326         145.409          37.000  
G25  23822533.927   125188258.832        2220.555          34.000    23822535.190    97549303.499        1728.000          34.000  
G24  23214206.737                       -3502.074          27.000    23214206.230    95058293.400       -2726.489          33.000  
G18  23147616.122   121641542.8123      -3174.177          32.000    23147617.663    94785623.156       -2471.909          33.000  
C08  37869849.422   197198236.426         274.592          35.000    37869840.432   152486156.363         212.775          38.000  
C38  37441335.819   194966883.503         -22.333          37.000                                                                  
C13  38081484.030   198300296.648         368.364          36.000    38081483.182   153338350.130         285.315          32.000  
C09  38695048.914   201495264.3092        -22.874          28.000    38695042.104   155808898.525         -18.896          34.000  
C16  37920232.784   197460606.709        -362.143          25.000    37920230.471   152689058.5683       -280.992          31.000  
C23  23575999.814   122766423.004         362.537          40.000                                                                  
R21  23674722.559   126688222.2303      -4077.032          27.000                                                                  
R09  21301525.695   113748965.912        1250.503          36.000    21301520.038    88471393.744         972.640          33.000  
G12  24235406.101   127357909.791         962.446          40.000    24235407.953    99239932.310         749.244          33.000  
S37  37899792.711   199164752.995        -534.624          34.000  
E21  28105803.445   147696957.459        1797.177          33.000    28105812.396   113170459.616        1375.864          37.000  
E27  27860887.358   146409954.781         537.422          36.000    27860894.030   112184280.092         406.966          30.000  
C37  25711751.547   133887855.8792       2486.100          31.000                                                                  
C39  37374351.866   194618066.6652       -525.250          31.000                                                                  
C06  37525763.975                        -172.977          29.000    37525755.407   151100666.6663       -130.413          29.000  
E29  25956345.858   136401505.252       -1292.182          29.000                                                                  
J03  37381043.932   196438697.465        -650.409          35.000    37381043.620   153069119.763        -507.471          32.000  
E26  26674852.696   140177281.345       -3223.204          36.000                                                                  
J04                                                                  40581008.209   166172446.848          86.314          34.000  
G28                                                                  24901384.890                        1906.336          16.000  
> 2025 10 27 02 05 29.0050000  0 24                     
G23  21611722.639   113570402.253         183.213          41.000    21611719.064    88496366.957         141.999          37.000  
G25  23822112.446   125186042.890        2216.189          37.000    23822113.630    97547576.674        1727.634          37.000  
G24  23214872.178   121994976.6763      -3502.832          25.000    23214871.608    95061018.0981      -2728.925          33.000  
G18  23148219.634   121644715.2012      -3171.002          35.000    23148221.606                       -2477.801          26.000  
C08  37869797.206   197197964.364         272.491          39.000    37869788.331   152485946.061         211.003          36.000  
C38  37441340.415   194966907.095         -23.541          39.000                                                                  
C13  38081413.562   198299929.176         368.889          35.000    38081412.768   153338065.962         284.327          35.000  
C09  38695054.358   201495301.6493        -25.432          24.000    38695047.462   155808921.5773        -20.740          29.000  
C16  37920302.042   197460973.183        -366.130          37.000    37920301.884   152689341.9592       -281.935          31.000  
C23  23575930.330   122766061.461         361.344          41.000                                                                  
R21  23675484.271   126692298.4032      -4082.018          26.000    23675484.093    98538453.3082      -3175.392          26.000  
R09  21301291.594   113747715.969        1249.068          38.000    21301284.878    88470421.349         973.274          34.000  
G12  24235223.516   127356949.838         960.136          36.000    24235224.471    99239192.2611        748.530          32.000  
S37  37899894.532   199165288.493        -534.283          36.000  
E21  28105461.911   147695163.138        1796.091          33.000    28105471.016   113169084.831        1375.075          38.000  
E27  27860785.431   146409419.559         536.097          37.000    27860792.113   112183864.8341        410.268          34.000  
C37  25711275.832   133885373.6132       2481.908          30.000                                                                  
C39  37374452.486   194618581.5613       -525.879          37.000                                                                  
C06  37525795.829   195406665.4583       -170.978          32.000    37525787.616   151100799.2342       -132.195          28.000  
E29  25956592.459   136402803.019       -1296.438          34.000                                                                  
J03  37381168.102   196439350.292        -652.734          35.000    37381167.913   153069628.350        -508.624          33.000  
E26  26675466.314   140180506.221       -3225.408          34.000                                                                  
J04                                                                  40580988.478   166172365.700          81.413          39.000  
G28                                                                  24900917.296                        1912.250          24.000  
> 2025 10 27 02 05 30.0050000  0 23                     
G23  21611687.623   113570218.896         183.950          37.000    21611684.261    88496224.086         143.649          39.000  
G25  23821690.620   125183826.168        2217.698          41.000    23821691.856    97545849.454        1727.461          33.000  
G24  23215538.605   121998477.9422      -3500.781          29.000    23215537.727    95063746.233       -2727.398          35.000  
G18  23148821.118   121647887.9492      -3171.854          36.000    23148827.501    94790578.7071      -2472.172          30.000  
C08  37869744.769   197197691.432         273.462          36.000    37869735.941   152485735.000         211.863          37.000  
C38  37441344.900   194966929.982         -22.113          37.000                                                                  
C13  38081344.672                1        369.317          26.000    38081342.090   153337780.968         285.157          32.000  
C09  38695062.679                         -23.097          24.000    38695052.191                         -19.313          20.000  
C16  37920373.074   197461338.799        -364.818          32.000    37920370.848   152689624.6302       -281.911          31.000  
C23  23575860.823   122765699.607         362.243          35.000                                                                  
R21  23676247.704   126696378.6772      -4080.207          32.000    23676246.812    98541627.6032      -3173.552          26.000  
R09  21301057.366   113746465.851        1250.923          38.000    21301051.618    88469449.116         972.280          36.000  
G12  24235040.745   127355989.451         962.274          39.000    24235039.989    99238443.855         749.602          37.000  
S37  37899996.241   199165823.063        -533.309          36.000  
E21  28105117.802   147693368.145        1795.922          28.000    28105129.140   113167709.316        1376.231          38.000  
E27  27860683.384   146408884.067         536.766          33.000    27860690.095   112183453.4061        411.274          38.000  
C37  25710799.106   133882890.2302       2485.296          33.000                                                                  
C39  37374552.930   194619107.2162       -524.664          33.000                                                                  
C06  37525828.214                        -169.194          24.000    37525821.083                        -131.088          29.000  
E29  25956838.529   136404099.317       -1295.256          37.000                                                                  
J03  37381292.192   196440002.352        -650.995          28.000    37381291.989   153070136.548        -508.801          32.000  
E26  26676078.377   140183730.592       -3224.256          25.000                                                                  
J04                                                                  40580968.269   166172283.456          83.316          40.000  
> 2025 10 27 02 05 31.0050000  0 23                     
G23  21611652.674   113570035.162         183.634          37.000    21611649.212    88496080.883         142.851          41.000  
G25  23821268.852   125181609.219        2215.845          41.000    23821270.000    97544121.902        1726.678          35.000  
G24  23216205.874   122001978.1451      -3501.218          38.000    23216203.363    95066474.113       -2728.344          37.000  
G18  23149424.988   121651059.6581      -3174.753          31.000    23149432.091    94793050.643       -2472.428          30.000  
C08  37869692.266   197197417.672         274.036          36.000    37869683.477   152485523.387         211.356          38.000  
C38  37441349.105   194966952.068         -21.722          36.000                                                                  
C13  38081272.744   198299179.6203        369.578          33.000    38081271.296   153337495.454         285.293          40.000  
C09  38695069.162                         -24.719          23.000    38695057.279   155808960.9773        -19.660          29.000  
C16  37920442.828   197461703.622        -364.573          32.000    37920441.363   152689906.7552       -281.815          34.000  
C23  23575791.219   122765337.459         360.931          41.000                                                                  
R21  23677009.638   126700457.5571      -4077.910          32.000    23677004.830    98544800.0111      -3174.238          26.000  
R09  21300823.337   113745216.020        1248.872          42.000    21300816.995    88468476.928         971.591          40.000  
G12  24234858.074   127355028.801         959.222          40.000    24234857.251    99237695.340         748.090          32.000  
S37  37900097.863   199166357.086        -534.860          39.000  
E21  28104773.133   147691572.539        1794.068          30.000    28104787.201   113166333.466        1375.322          39.000  
E27  27860581.486   146408348.160         535.199          39.000    27860587.889   112183042.587         409.541          33.000  
C37  25710320.767   133880406.7972       2480.809          30.000                                                                  
C39  37374653.729   194619632.0102       -524.725          36.000                                                                  
C06  37525858.894                        -169.666          25.000    37525851.742   151101054.9513       -131.813          28.000  
E29  25957084.709   136405394.790       -1295.518          39.000                                                                  
J03  37381416.139   196440653.998        -651.801          36.000    37381416.067   153070644.288        -508.069          36.000  
E26  26676689.814   140186954.320       -3223.422          26.000                                                                  
J04                                                                  40580947.992   166172200.575          82.517          42.000  
> 2025 10 27 02 05 32.0050000  0 24                     
G23  21611617.525   113569851.112         182.501          42.000    21611614.036    88495937.454         142.676          34.000  
G25  23820846.847   125179391.593        2216.533          40.000    23820848.121    97542393.883        1727.641          35.000  
G24  23216872.993   122005490.8593      -3502.132          33.000    23216868.019    95069201.623       -2727.915          32.000  
G18  23150031.968   121654231.486       -3173.072          35.000    23150032.893                       -2452.371          21.000  
C08  37869639.449   197197143.258         273.671          40.000    37869630.792   152485311.155         210.769          33.000  
C38  37441353.072   194966973.499         -22.241          41.000                                                                  
C13  38081199.889   198298809.6122        370.131          33.000    38081200.320   153337209.449         285.355          30.000  
C09  38695074.075                         -23.394          23.000    38695062.200   155808979.1122        -16.831          28.000  
C16  37920512.335   197462067.987        -365.352          36.000    37920512.095   152690188.4102       -281.681          33.000  
C23  23575721.595   122764975.087         361.463          44.000                                                                  
R23  24992806.687                        1441.078          13.000                                                                  
R21  23677770.633                1      -4077.431          27.000    23677767.764    98547972.427       -3173.489          33.000  
R09  21300589.126   113743965.968        1248.833          42.000    21300582.790    88467504.667         971.221          38.000  
G12  24234675.159   127354067.889         959.519          43.000    24234673.371    99236946.440         748.281          31.000  
S37  37900199.404   199166890.326        -534.919          41.000  
E21  28104433.808   147689776.024        1795.694          38.000    28104445.567   113164956.940        1376.754          35.000  
E27  27860479.425   146407811.800         534.772          39.000    27860486.566   112182631.832         409.100          32.000  
C37  25709842.383   133877922.5392       2484.714          32.000                                                                  
C39  37374754.338   194620156.3442       -525.232          39.000                                                                  
C06  37525892.017   195407163.7673       -169.153          32.000    37525886.696   151101185.7702       -132.061          28.000  
E29  25957331.210   136406689.632       -1295.730          39.000                                                                  
J03  37381540.100   196441304.874        -651.892          39.000    37381540.046   153071151.498        -507.458          35.000  
E26  26677303.618   140190177.472       -3224.101          37.000                                                                  
J04                                                                  40580927.641   166172117.042          82.666          36.000  
> 2025 10 27 02 05 33.0050000  0 25                     
G23  21611582.558   113569667.546         183.884          31.000    21611579.129    88495794.470         142.773          33.000  
G25  23820424.767   125177174.055        2217.624          38.000    23820426.154    97540665.885        1728.230          32.000  
G24  23217538.994   122008991.3612      -3500.596          36.000    23217537.172    95071929.179       -2727.291          30.000  
G18  23150637.819   121657403.816       -3172.130          30.000    23150632.468                       -2471.688          21.000  
C08  37869586.762   197196868.959         274.943          32.000    37869578.187   152485099.018         212.762          33.000  
C38  37441357.125   194966995.032         -21.210          39.000                                                                  
C13  38081128.306   198298439.545         370.237          32.000    38081129.293   153336923.478         286.719          28.000  
C09  38695074.027   201495403.9113        -23.744          30.000    38695066.134                          -4.063          19.000  
C16  37920583.038   197462432.460        -364.402          31.000    37920582.890                        -281.757          27.000  
C23  23575652.057   122764613.224         362.232          42.000                                                                  
R23  24992538.430                        1441.078          16.000                                                                  
R21  23678538.363                       -4077.828          26.000    23678529.468    98551145.101       -3172.765          31.000  
R09  21300355.128   113742716.686        1249.339          42.000    21300348.944    88466532.978         971.963          37.000  
R22  22986776.024                        -953.796          24.000                                                                  
G12  24234492.240   127353107.241         960.575          37.000    24234488.976    99236197.855         748.363          27.000  
S37  37900300.801   199167423.430        -532.861          38.000  
E21  28104092.927   147687979.347        1796.923          35.000    28104103.562   113163580.297        1376.614          29.000  
E27  27860377.527   146407275.636         536.541          34.000    27860384.427   112182220.932         410.906          31.000  
C37  25709365.845   133875437.9221       2484.818          33.000                                                                  
C39  37374854.943   194620680.820        -524.536          35.000                                                                  
C06  37525924.804   195407333.157        -169.056          30.000    37525918.621   151101316.652        -130.042          26.000  
E29  25957577.414   136407984.165       -1294.792          28.000                                                                  
J03  37381663.992   196441955.859        -650.659          34.000    37381663.835   153071658.714        -506.622          33.000  
E26  26677917.809   140193400.924       -3223.254          29.000                                                                  
J04                                                                  40580907.180   166172033.395          84.183          32.000  
> 2025 10 27 02 05 34.0050000  0 25                     
G23  21611547.538   113569483.503         184.843          35.000    21611544.114    88495651.014         143.681          35.000  
G25  23820002.697   125174955.820        2218.101          39.000    23820004.108    97538937.443        1728.060          32.000  
G24  23218204.395   122012491.2742      -3499.830          37.000    23218203.335    95074656.415       -2727.755          30.000  
G18  23151238.654   121660575.462       -3170.429          30.000    23151234.235                       -2475.789          23.000  
C08  37869534.002   197196593.675         276.372          32.000    37869525.464   152484886.251         212.744          34.000  
C38  37441361.162   194967015.706         -19.971          40.000                                                                  
C13  38081058.028   198298068.763         370.809          32.000    38081058.157   153336636.747         286.874          28.000  
C09  38695076.259   201495426.8122        -22.393          31.000    38695070.250                         -23.258          20.000  
C16  37920652.841   197462796.113        -363.297          32.000    37920653.149   152690756.5593       -281.097          27.000  
C23  23575582.378   122764250.900         363.047          44.000                                                                  
R23  24992268.826                        1441.078          16.000                                                                  
R09  21300121.088   113741467.165        1250.257          42.000    21300115.172    88465561.160         971.916          39.000  
R22  22986953.832                        -954.042          23.000                                                                  
G12  24234309.410   127352146.161         960.619          40.000    24234304.819    99235448.912         749.143          28.000  
S37  37900402.085   199167955.698        -532.166          38.000  
E21  28103751.919   147686181.908        1796.954          39.000    28103761.502   113162203.125        1375.957          34.000  
E27  27860275.407   146406738.941         536.314          36.000    27860281.954   112181809.775         410.942          33.000  
C37  25708888.433   133872953.047        2485.438          34.000                                                                  
C39  37374955.574   194621204.401        -522.540          37.000                                                                  
C06  37525955.419   195407501.604        -168.035          29.000    37525951.657                        -130.359          26.000  
E29  25957823.314   136409278.101       -1296.236          29.000                                                                  
J03  37381787.728   196442606.008        -649.884          34.000    37381787.544   153072165.303        -506.671          34.000  
E26  26678531.614   140196623.533       -3222.354          30.000                                                                  
J04                                                                  40580886.500   166171948.977          85.339          32.000  
R21                                                                  23679291.148    98554317.019       -3171.382          31.000  
> 2025 10 27 02 05 35.0050000  0 26                     
G23  21611512.375   113569298.459         182.411          36.000    21611508.842    88495506.801         142.341          39.000  
G25  23819580.529   125172737.000        2217.170          38.000    23819581.964    97537208.476        1728.435          32.000  
G24  23218871.195   122015990.3822      -3500.187          34.000    23218869.931    95077383.144       -2728.304          35.000  
G18  23151844.642   121663746.641       -3173.136          40.000    23151839.818    94802913.7161      -2472.429          35.000  
C08  37869480.924   197196317.134         274.249          36.000    37869472.344   152484672.390         212.083          38.000  
C38  37441364.978   194967034.961         -21.246          38.000                                                                  
C13  38080986.618   198297696.795         370.489          41.000    38080986.784   153336349.020         286.025          35.000  
C09  38695078.375   201495448.8392        -22.646          34.000    38695073.853                         -18.622          37.000  
C16  37920722.436   197463158.461        -364.305          40.000    37920722.349   152691036.8072       -282.344          37.000  
C23  23575512.518   122763887.690         360.950          44.000                                                                  
R23  24991999.322                        1441.078          15.000                                                                  
R21  23680065.722   126716814.8133      -4078.917          37.000    23680051.404    98557488.643       -3172.254          31.000  
R09  21299886.885   113740217.044        1247.732          41.000    21299881.214    88464588.927         970.445          38.000  
G12  24234126.464   127351184.572         959.071          40.000    24234123.676    99234699.832         747.465          32.000  
S37  37900503.183   199168486.593        -533.334          38.000  
G28  24898109.905                        2456.499          27.000                                                                  
E21  28103410.710   147684383.954        1796.513          36.000    28103419.283   113160825.419        1376.450          37.000  
E27  27860173.614   146406201.803         535.113          37.000    27860180.165   112181398.194         410.467          38.000  
C37  25708410.691   133870467.672        2484.023          38.000                                                                  
C39  37375055.882   194621726.624        -524.237          38.000                                                                  
C06  37525989.635   195407669.014        -168.992          38.000    37525983.897   151101586.4363       -130.921          38.000  
E29  25958069.590   136410570.892       -1294.841          35.000                                                                  
J03  37381911.380   196443255.397        -650.793          36.000    37381911.132   153072671.313        -507.318          39.000  
E26  26679145.597   140199845.687       -3223.935          34.000                                                                  
J04                                                                  40580865.650   166171863.490          84.018          36.000  
R22                                                                  22987142.949                        -746.078          16.000  
> 2025 10 27 02 05 36.0050000  0 27                     
G23  21611477.452   113569114.968         184.289          45.000    21611474.027    88495363.848         143.149          42.000  
G25  23819158.269   125170518.383        2220.117          39.000    23819159.794    97535479.747        1729.352          35.000  
G24  23219537.519   122019490.4622      -3499.102          41.000    23219536.579    95080110.434       -2727.202          39.000  
G18  23152447.323   121666918.446       -3170.215          40.000    23152443.520    94805385.186       -2470.927          38.000  
C08  37869427.971   197196041.665         276.392          37.000    37869419.428   152484459.293         213.551          38.000  
C38  37441368.939   194967055.515         -19.501          44.000                                                                  
C13  38080915.194   198297325.653         371.912          43.000    38080915.641   153336061.876         287.168          35.000  
C09  38695083.063   201495471.4762        -21.399          34.000    38695077.325   155809044.7713        -16.679          34.000  
C16  37920792.187   197463521.972        -362.001          40.000    37920791.188   152691317.7922       -280.483          32.000  
C23  23575443.061   122763526.025         362.763          45.000                                                                  
R23  24991730.119                        1441.078          16.000                                                                  
R21  23680820.237   126720892.7272      -4077.329          43.000    23680813.366    98560660.276       -3170.983          32.000  
R09  21299653.257   113738968.564        1249.210          47.000    21299647.489    88463617.882         971.219          36.000  
R16  22901843.644                       -2610.780          29.000                                                                  
G12  24233943.623   127350223.643         961.399          42.000    24233941.404    99233950.990         749.636          35.000  
S37  37900604.304   199169018.292        -531.019          38.000  
G28  24897632.874                        2459.782          28.000                                                                  
E21  28103069.027   147682585.518        1800.385          36.000    28103076.812   113159447.340        1379.313          38.000  
E27  27860071.553   146405665.029         537.393          39.000    27860077.379   112180986.812         412.398          39.000  
C37  25707933.400   133867982.352        2486.650          37.000                                                                  
C39  37375156.767   194622250.202        -522.424          43.000                                                                  
C06  37526023.756   195407837.365        -167.039          38.000    37526016.269   151101716.6532       -130.508          33.000  
E29  25958315.835   136411864.149       -1292.014          41.000                                                                  
J03  37382035.106   196443904.961        -648.285          43.000    37382034.725   153073177.467        -505.450          38.000  
E26  26679759.356   140203067.835       -3221.036          40.000                                                                  
J04                                                                  40580844.843   166171778.579          85.604          39.000  
R22                                                                  22987323.768                        -746.078          15.000  
> 2025 10 27 02 05 37.0050000  0 27                     
G23  21611442.350   113568930.518         183.172          41.000    21611438.911    88495220.112         143.140          40.000  
G25  23818735.969   125168299.226        2218.723          40.000    23818737.548    97533750.467        1728.666          31.000  
G24  23220203.299   122022989.1931      -3500.042          36.000    23220202.739    95082837.106       -2727.444          32.000  
G18  23153050.557   121670089.667       -3172.449          41.000    23153046.481    94807856.242       -2472.073          36.000  
C08  37869374.852   197195764.883         276.351          39.000    37869366.284   152484245.320         213.186          39.000  
C38  37441372.424   194967074.751         -20.117          40.000                                                                  
C13  38080844.513   198296953.302         371.894          42.000    38080844.110   153335773.919         287.842          37.000  
C09  38695087.842   201495493.2962        -22.413          40.000    38695081.819   155809061.5562        -17.594          42.000  
C16  37920861.917   197463884.504        -363.220          43.000    37920858.953   152691597.9962       -281.326          38.000  
C23  23575373.501   122763163.590         361.164          41.000                                                                  
R23  24991461.108                        1441.078          14.000                                                                  
R21  23681574.898   126724969.6591      -4078.062          39.000    23681574.915    98563831.645       -3171.694          32.000  
R09  21299419.579   113737719.647        1247.930          44.000    21299413.776    88462646.454         970.149          36.000  
R22  22987487.036   122708766.3993       -955.907          25.000    22987502.767                        -746.078          15.000  
R16  22902330.748   122340139.3893      -2612.462          28.000                                                                  
G12  24233760.511   127349262.271         960.377          39.000    24233759.061    99233201.826         748.770          35.000  
S37  37900705.171   199169548.804        -531.732          39.000  
G28  24897137.939                        2456.614          26.000    24897160.716   101949711.0783       1915.159          28.000  
E21  28102726.422   147680786.634        1798.770          35.000    28102734.435   113158068.982        1377.610          34.000  
E27  27859969.098   146405127.792         536.593          36.000    27859975.313   112180575.181         411.266          38.000  
C37  25707456.059   133865496.692        2484.376          38.000                                                                  
C39  37375257.069   194622772.592        -523.517          42.000                                                                  
C06  37526054.533   195408004.759        -168.106          41.000    37526045.155   151101845.8622       -130.854          36.000  
E29  25958561.249   136413156.170       -1292.604          38.000    25958560.777   104524367.071        -990.031          38.000  
J03  37382158.597   196444553.814        -649.512          39.000    37382158.207   153073683.053        -507.013          33.000  
E26  26680371.817   140206289.625       -3222.669          39.000    26680375.209   107430815.045       -2469.007          39.000  
J04                                                                  40580823.857   166171692.603          85.387          36.000  
> 2025 10 27 02 05 38.0050000  0 26                     
G23  21611407.352   113568747.311         183.892          40.000    21611404.092    88495077.364         143.032          42.000  
G25  23818313.703   125166080.422        2219.234          38.000    23818315.239    97532021.497        1729.211          32.000  
G24  23220869.351   122026489.340       -3499.933          37.000    23220868.731    95085564.385       -2727.063          35.000  
G18  23153653.968   121673261.436       -3171.416          43.000    23153651.851    94810327.814       -2470.866          40.000  
C08  37869321.845   197195488.944         276.365          36.000    37869313.263   152484031.904         213.855          40.000  
C38  37441376.194   194967094.763         -19.336          42.000                                                                  
C13  38080773.026   198296581.566         372.415          37.000    38080772.738   153335486.508         287.797          37.000  
C09  38695091.272   201495515.4752        -21.375          34.000    38695084.392   155809078.7132        -16.212          34.000  
C16  37920931.653   197464247.624        -362.158          40.000    37920929.803   152691878.8842       -280.216          40.000  
C23  23575304.118   122762802.162         361.935          43.000                                                                  
R23  24991191.063                        1438.473          12.000                                                                  
R21  23682334.805   126729047.091       -4076.996          42.000    23682336.765    98567002.984       -3170.799          38.000  
R09  21299186.084   113736471.931        1248.231          42.000    21299180.236    88461675.992         970.657          37.000  
R22  22987661.786   122709721.9812       -955.138          24.000    22987683.175                        -746.078          15.000  
G12  24233577.624   127348301.498         960.923          38.000    24233576.379    99232453.194         749.344          31.000  
S37  37900806.197   199170079.812        -530.310          38.000  
J04  40582247.777                         104.766          11.000    40580803.078   166171607.142          86.167          34.000  
G28  24896652.356   130832790.5613       2459.871          26.000    24896667.085   101947688.5731       1915.260          32.000  
E21  28102384.089   147678987.593        1799.436          35.000    28102392.079   113156690.522        1378.932          37.000  
E27  27859866.991   146404591.074         536.896          36.000    27859873.187   112180163.927         411.447          39.000  
C37  25706978.710   133863010.972        2485.722          35.000                                                                  
C39  37375357.489   194623295.680        -522.375          41.000                                                                  
C06  37526087.613   195408172.683        -167.127          39.000    37526078.233   151101975.7782       -129.039          39.000  
E29  25958807.191   136414448.903       -1291.567          38.000    25958808.038   104525357.602        -989.551          37.000  
J03  37382281.916   196445202.894        -648.517          39.000    37382281.769   153074188.910        -505.219          37.000  
E26  26680985.056   140209511.682       -3221.476          33.000    26680987.977   107433283.730       -2468.477          40.000  
> 2025 10 27 02 05 39.0050000  0 26                     
G23  21611372.248   113568562.770         185.828          36.000    21611368.964    88494933.574         144.040          41.000  
G25  23817891.330   125163860.728        2219.747          38.000    23817893.361    97530291.851        1730.488          35.000  
G24  23221535.153   122029988.016       -3498.171          33.000    23221534.503    95088301.6761      -2726.667          30.000  
G18  23154257.353   121676432.314       -3170.924          39.000    23154257.032    94812798.592       -2471.377          39.000  
C08  37869268.464   197195211.273         278.658          36.000    37869259.992   152483817.123         215.476          37.000  
C38  37441379.850   194967113.183         -17.700          38.000                                                                  
C13  38080701.202   198296208.130         375.109          37.000    38080701.047   153335197.699         289.156          37.000  
C09  38695094.706   201495535.9291        -20.606          36.000    38695090.565   155809094.4281        -16.067          40.000  
C16  37921001.037   197464609.185        -359.894          37.000    37920998.244   152692157.9681       -279.298          39.000  
C23  23575234.513   122762439.744         362.420          41.000                                                                  
R23  24990922.293                        1438.473          11.000                                                                  
R21  23683097.032   126733123.588       -4076.856          38.000    23683098.651    98570173.502       -3169.107          33.000  
R09  21298952.254   113735223.427        1248.995          39.000    21298946.524    88460704.949         971.342          37.000  
G12  24233394.649   127347340.071         961.752          34.000    24233393.304    99231693.9611        749.735          35.000  
S37  37900906.890   199170609.299        -528.916          33.000  
J04  40582227.968                         104.766          12.000    40580781.835   166171517.2471         87.664          35.000  
G28  24896184.400   130830330.9772       2459.621          28.000    24896192.294   101945771.860        1918.350          24.000  
E21  28102041.655   147677187.559        1799.678          34.000    28102049.333   113155311.125        1379.973          32.000  
E27  27859764.609   146404053.603         538.222          33.000    27859771.074   112179752.008         412.733          37.000  
C37  25706501.029   133860524.447        2486.144          32.000                                                                  
C39  37375457.727   194623817.146        -519.354          39.000                                                                  
C06  37526119.484   195408339.171        -165.991          35.000    37526110.099   151102104.520        -128.570          40.000  
E29  25959052.933   136415739.869       -1289.979          37.000    25959052.338   104526346.708        -987.450          35.000  
J03  37382405.282   196445850.992        -647.925          37.000    37382404.978   153074693.865        -504.724          38.000  
E26  26681597.649   140212732.653       -3221.532          36.000    26681601.884   107435751.769       -2467.629          41.000  
R22                                                                  22987863.831                        -746.078          14.000  
> 2025 10 27 02 05 40.0050000  0 26                     
G23  21611337.160   113568378.132         184.343          34.000    21611333.867    88494789.826         143.391          37.000  
G25  23817470.251                1       2219.445          33.000    23817471.008    97528562.047        1729.639          31.000  
G24  23222200.871   122033488.3053      -3500.121          37.000    23222200.150    95091027.993       -2726.623          30.000  
G18  23154861.113                1      -3173.619          32.000    23154862.787    94815269.384       -2471.144          34.000  
C08  37869215.136   197194933.212         278.619          28.000    37869206.657   152483602.275         214.565          37.000  
C38  37441383.488   194967131.150         -17.950          31.000                                                                  
C13  38080629.409   198295834.416         373.328          36.000    38080629.262   153334908.659         289.237          39.000  
C09  38695098.680   201495556.659         -22.373          28.000    38695093.102   155809110.302         -16.792          38.000  
C16  37921070.368   197464970.317        -358.866          32.000    37921067.542   152692437.293        -281.584          39.000  
C23  23575164.940   122762077.196         363.826          33.000                                                                  
R23  24990654.374                        1438.473          11.000                                                                  
R21  23683861.039   126737199.954       -4076.208          39.000    23683860.535    98573344.099       -3171.423          35.000  
R09  21298718.863                1       1248.383          32.000    21298712.919    88459734.165         969.868          34.000  
G12  24233211.697   127346378.868         961.438          32.000    24233210.340    99230944.850         748.193          32.000  
S37  37901007.677                1       -529.053          30.000  
G28  24895714.854   130827871.5362       2458.520          29.000    24895722.362   101943855.418        1916.433          27.000  
E21  28101699.073   147675387.541        1799.169          34.000    28101706.908   113153931.835        1379.505          39.000  
E27  27859662.275   146403516.134         537.296          35.000    27859668.916   112179340.233         411.281          39.000  
C37  25706019.084   133857986.8933       2487.022          30.000                                                                  
C39  37375557.829   194624338.303        -520.264          32.000                                                                  
C06  37526151.371   195408505.319        -167.014          32.000    37526142.150   151102232.888        -129.457          38.000  
E29  25959298.057   136417030.599       -1290.646          39.000    25959299.500   104527335.720        -988.527          39.000  
J03  37382529.045                        -648.639          37.000    37382528.218   153075198.550        -506.110          38.000  
E26  26682211.771   140215953.472       -3220.069          37.000    26682214.369   107438219.612       -2469.448          37.000  
J04                                                                  40580760.468   166171429.926          87.068          31.000  
R22                                                                  22988043.051                        -746.078          14.000  
> 2025 10 27 02 05 41.0050000  0 25                     
G23  21611302.243   113568193.714         183.565          36.000    21611298.748    88494645.965         142.440          37.000  
G25  23817050.193                        2218.109          30.000    23817049.153    97526833.676        1728.449          31.000  
G24  23222866.823   122036987.2982      -3499.246          30.000    23222865.904    95093754.447       -2726.874          24.000  
G18  23155465.370   121682790.9613      -3171.604          42.000    23155465.114    94817740.864       -2472.609          36.000  
C08  37869162.005                1        275.974          29.000    37869153.096   152483386.796         215.536          35.000  
C38  37441389.474                1        -19.324          30.000                                                                  
C13  38080557.394   198295459.930         373.780          30.000    38080557.361   153334619.035         289.116          34.000  
C09  38695102.753   201495553.4383        -21.554          36.000    38695097.150   155809126.416         -16.339          39.000  
C16  37921139.755   197465331.615        -359.857          32.000    37921137.215   152692716.468        -279.222          34.000  
C23  23575095.529   122761708.9563        358.232          31.000                                                                  
R23  24990386.070                        1438.473          14.000                                                                  
R21  23684622.926                1      -4077.552          39.000    23684622.448    98576515.202       -3170.302          35.000  
R09  21298486.203   113732727.1303       1247.012          35.000    21298479.477    88458764.715         967.571          31.000  
G12  24233030.647   127345435.0613        960.599          33.000    24233027.978    99230197.117         748.201          33.000  
S37  37901108.513   199171668.9573       -530.197          31.000  
J04  40582184.889                         104.766          12.000    40580739.292   166171342.519          87.656          32.000  
G28  24895240.813                        2458.780          32.000    24895250.484   101941939.424        1916.528          28.000  
E21  28101363.878                        1796.654          23.000    28101364.844   113152553.684        1379.934          38.000  
E27  27859559.482                         538.473          30.000    27859567.424   112178932.5791        411.447          39.000  
C37  25705546.215   133855524.5873       2487.188          37.000                                                                  
C39  37375657.820   194624859.295        -522.223          31.000                                                                  
C06  37526183.277   195408671.456        -166.783          33.000    37526174.563   151102361.500        -130.266          36.000  
E29  25959543.938   136418320.539       -1289.108          37.000    25959545.550   104528324.081        -988.421          35.000  
J03  37382653.612   196447170.3673       -650.031          31.000    37382651.738   153075704.304        -506.152          33.000  
E26  26682830.936                       -3218.872          34.000    26682828.256   107440688.410       -2467.561          41.000  
> 2025 10 27 02 05 42.0050000  0 25                     
G23  21611267.662   113568012.323         180.524          41.000    21611264.272    88494504.650         139.902          36.000  
G25  23816624.367   125157204.8983       2215.393          42.000    23816627.570    97525105.938        1727.688          31.000  
G24  23223533.168   122040488.4672      -3504.259          39.000    23223532.179    95096482.633       -2730.042          34.000  
G18  23156064.784   121685964.4942      -3172.570          46.000    23156068.766    94820213.611       -2472.529          34.000  
C08  37869106.552   197194374.8913        273.401          35.000    37869100.182   152483173.424         211.947          36.000  
C38  37441392.419   194967155.5363        -20.618          40.000                                                                  
C13  38080486.258   198295087.710         371.469          41.000    38080485.900   153334331.250         288.563          29.000  
C09  38695107.095   201495576.1382        -21.504          43.000    38695101.828   155809143.876         -16.954          38.000  
C16  37921209.732   197465695.130        -363.579          42.000    37921206.928   152692997.637        -280.554          34.000  
C23  23575026.836   122761349.8222        358.277          41.000                                                                  
R23  24990118.538                        1438.473          15.000                                                                  
R21  23685384.766   126745277.2773      -4077.011          50.000    23685384.517    98579686.985       -3171.386          38.000  
R09  21298249.048   113731482.8812       1242.165          37.000    21298246.494    88457796.801         965.882          30.000  
G12  24232848.231                         954.559          34.000    24232845.909    99229450.667         743.322          28.000  
G28  24894784.446   130822974.3203       2459.695          37.000    24894784.293   101940024.167        1916.841          30.000  
E21  28101018.812   147671850.5091       1796.956          37.000    28101022.881   113151175.888        1377.333          38.000  
E27  27859458.127   146402439.8901        529.662          33.000    27859465.920   112178523.023         407.849          37.000  
C37  25705071.080   133853040.0922       2484.908          45.000                                                                  
C39  37375758.221   194625382.655        -523.285          41.000                                                                  
C06  37526215.476   195408839.810        -168.302          39.000    37526206.853   151102491.674        -129.502          35.000  
E29  25959790.131   136419612.765       -1293.597          41.000    25959791.507   104529314.226        -991.904          33.000  
J03  37382776.517   196447820.4292       -649.847          42.000    37382775.383   153076210.869        -506.122          39.000  
E26  26683434.115   140222445.6071      -3223.896          41.000    26683441.126   107443158.269       -2471.124          37.000  
J04                                                                  40580718.519   166171256.895          82.876          27.000  
R16                                                                  22904758.522    95163528.6753      -2039.086          24.000  
> 2025 10 27 02 05 43.0050000  0 25                     
G23  21611233.472   113567832.258         179.347          43.000    21611230.439                         140.405          33.000  
G25  23816201.508   125154987.6051       2215.838          42.000    23816207.297    97523386.6081       1725.990          32.000  
G24  23224199.807   122043991.1451      -3505.054          38.000    23224198.812    95099212.289       -2730.741          34.000  
G18  23156670.891   121689137.844       -3174.543          46.000    23156672.352    94822686.444       -2473.526          41.000  
C08  37869055.022   197194099.9562        274.240          41.000    37869047.353   152482960.905         212.500          31.000  
C38  37441396.328   194967177.0312        -23.230          42.000                                                                  
C13  38080414.913   198294716.601         370.492          40.000    38080414.835   153334044.454         285.692          32.000  
C09  38695111.519   201495598.4172        -23.202          44.000    38695106.481   155809161.276         -17.773          41.000  
C16  37921279.662   197466058.999        -364.653          42.000    37921277.043   152693279.021        -282.460          39.000  
C23  23574957.385   122760992.0412        356.918          42.000                                                                  
R21  23686142.471   126749354.794       -4078.262          40.000    23686146.554    98582858.490       -3173.447          29.000  
R09  21298016.810   113730239.6831       1239.596          40.000    21298013.745    88456829.663         965.092          33.000  
R22  22988540.897   122714391.7313       -958.852          34.000                                                                  
R16  22905276.584                       -2617.837          30.000    22905250.938                       -2033.213          31.000  
G12  24232665.975   127343518.4033        954.358          40.000    24232664.134    99228705.167         744.041          32.000  
G28  24894314.267   130820515.8322       2458.800          34.000    24894315.680   101938108.655        1915.283          30.000  
E21  28100670.708   147670052.512        1797.565          40.000    28100680.866   113149798.131        1377.085          38.000  
E27  27859358.500   146401907.109         532.805          38.000    27859364.148   112178114.768         407.763          40.000  
C37  25704593.522   133850555.1092       2484.814          45.000                                                                  
C39  37375858.921   194625906.543        -524.921          43.000                                                                  
C06  37526247.744   195409008.286        -169.399          42.000    37526239.421   151102621.892        -130.465          37.000  
E29  25960036.405   136420906.253       -1294.454          40.000    25960037.831   104530305.427        -990.988          33.000  
J03  37382898.590   196448470.0951       -650.842          43.000    37382899.170   153076717.480        -507.336          41.000  
E26  26684046.936   140225668.712       -3224.240          43.000    26684054.883   107445627.815       -2470.930          40.000  
J04                                                                  40580697.816   166171172.049          85.074          36.000  
> 2025 10 27 02 05 44.0050000  0 25                     
G23  21611199.418   113567653.168         178.551          43.000    21611198.637    88494235.6691        139.331          36.000  
G25  23815779.837   125152771.715        2216.729          41.000    23815783.502    97521659.850        1727.378          32.000  
G24  23224866.553   122047494.883       -3503.093          44.000    23224865.576    95101941.6031      -2731.729          31.000  
G18  23157274.078   121692311.943       -3173.793          46.000    23157276.049    94825159.706       -2471.426          38.000  
C08  37869001.431   197193825.7792        274.657          35.000    37868994.670   152482748.912         210.725          32.000  
C38  37441400.998   194967199.1672        -21.454          42.000                                                                  
C13  38080343.654   198294345.848         370.762          42.000    38080343.725   153333757.647         287.602          31.000  
C09  38695116.066   201495621.3322        -22.389          43.000    38695111.006   155809178.870         -15.764          38.000  
C16  37921349.566   197466423.255        -363.447          41.000    37921347.057   152693560.735        -281.602          37.000  
C23  23574890.425   122760635.0972        357.782          46.000                                                                  
R21  23686905.777   126753432.489       -4076.926          48.000    23686908.563    98586030.027       -3170.933          40.000  
R09  21297787.355   113728998.208        1241.189          47.000    21297781.290    88455864.012         966.465          35.000  
R22  22988710.185   122715351.3702       -958.495          37.000                                                                  
R16  22905757.479                       -2617.236          28.000    22905740.789                       -2034.704          24.000  
G12  24232482.833   127342562.7962        955.759          43.000    24232482.443                         745.473          27.000  
G28  24893851.456   130818057.5811       2457.678          34.000    24893845.736   101936193.256        1917.982          28.000  
E21  28100329.869   147668254.999        1799.844          41.000    28100338.964   113148420.902        1378.927          38.000  
E27  27859258.357   146401375.106         531.379          33.000    27859263.605   112177707.208         407.880          36.000  
C37  25704118.176   133848070.5612       2486.135          45.000                                                                  
C39  37375959.652   194626430.949        -523.578          45.000                                                                  
C06  37526280.041   195409177.157        -168.473          40.000    37526271.971   151102752.588        -130.094          37.000  
E29  25960282.313   136422200.051       -1292.575          36.000    25960284.171   104531296.870        -990.838          33.000  
J03  37383021.132   196449120.926        -650.165          46.000    37383023.046   153077224.718        -506.921          32.000  
E26  26684658.739   140228892.376       -3222.074          41.000    26684668.316   107448097.918       -2468.958          38.000  
J04                                                                  40580677.157   166171087.572          85.688          32.000  
> 2025 10 27 02 05 45.0050000  0 25                     
G23  21611165.593   113567475.142         178.430          42.000    21611162.594    88494097.086         139.194          36.000  
G25  23815359.905   125150556.087        2215.552          44.000    23815362.751    97519933.455        1724.443          31.000  
G24  23225533.629   122051000.030       -3505.404          43.000    23225535.374    95104683.933       -2733.337          28.000  
G18  23157880.040   121695486.264       -3173.862          50.000    23157879.838    94827633.224       -2473.350          40.000  
C08  37868949.454   197193552.275         273.849          40.000    37868942.060   152482537.526         211.121          36.000  
C38  37441404.493   194967222.005         -23.505          42.000                                                                  
C13  38080272.768   198293975.996         368.929          35.000    38080272.831   153333471.946         286.141          26.000  
C09  38695120.658   201495644.368         -22.404          45.000    38695115.504   155809196.827         -17.480          39.000  
C16  37921419.620   197466788.130        -364.818          44.000    37921417.271   152693842.820        -281.539          37.000  
C23  23574820.696   122760279.232         356.160          46.000                                                                  
R21  23687670.397   126757510.550       -4076.884          42.000    23687670.613    98589201.658       -3170.564          36.000  
R09  21297553.458   113727757.800        1240.541          49.000    21297549.036    88454895.9013        964.819          32.000  
R22  22988885.030   122716228.8713       -961.405          39.000                                                                  
R16  22906241.902   122361032.0223      -2615.662          31.000    22906236.242                       -2035.766          25.000  
G12  24232301.931   127341608.2012        953.384          42.000    24232300.475    99227218.6041        743.508          28.000  
G28  24893373.847   130815599.949        2458.284          29.000    24893378.883   101934278.438        1915.503          28.000  
E21  28099986.040   147666457.635        1797.475          41.000    28099996.866   113147043.638        1376.927          37.000  
E27  27859158.506   146400844.203         530.536          38.000    27859161.963   112177300.495         405.747          30.000  
C37  25703639.361   133845585.7651       2485.151          46.000                                                                  
C39  37376060.453   194626955.958        -525.049          41.000                                                                  
C06  37526312.650   195409346.622        -169.350          42.000    37526304.562   151102883.496        -130.577          39.000  
E29  25960528.897   136423495.035       -1296.166          33.000    25960530.500   104532288.978        -991.240          30.000  
J03  37383145.703   196449771.885        -650.421          44.000    37383146.918   153077731.940        -507.471          36.000  
E26  26685277.749   140232116.251       -3223.714          44.000    26685281.862   107450568.225       -2470.219          41.000  
J04                                                                  40580656.702   166171003.595          83.859          33.000  
> 2025 10 27 02 05 46.0050000  0 25                     
G23  21611131.886   113567298.137         177.387          43.000    21611130.753    88493959.164         138.483          39.000  
G25  23814939.431   125148340.878        2216.253          45.000    23814940.194    97518207.256        1726.646          35.000  
G24  23226200.627   122054505.813       -3505.447          42.000    23226203.441                       -2730.377          32.000  
G18  23158484.455   121698661.807       -3174.632          44.000    23158483.993    94830107.915       -2473.845          34.000  
C08  37868896.961   197193279.338         273.225          42.000    37868889.670   152482326.402         211.432          40.000  
C38  37441408.833   194967245.346         -23.126          43.000                                                                  
C13  38080202.018   198293606.886         369.903          36.000    38080203.035                         282.303          26.000  
C09  38695125.290   201495668.360         -23.169          42.000    38695120.218   155809215.335         -18.169          42.000  
C16  37921489.791   197467153.762        -364.794          44.000    37921487.535   152694125.636        -282.378          37.000  
C23  23574753.143   122759924.139         355.444          47.000                                                                  
R21  23688435.686   126761589.661       -4078.452          47.000    23688432.955    98592374.318       -3172.988          33.000  
R09  21297318.917   113726518.473        1239.895          44.000    21297316.970    88453931.9602        964.121          32.000  
R22  22989072.439   122717229.4833       -964.349          35.000                                                                  
R16  22906723.619   122363605.3072      -2622.890          35.000                                                                  
G12  24232119.336   127340654.0032        955.199          41.000    24232117.522    99226475.122         743.854          32.000  
G28  24892908.970                1       2458.201          23.000    24892911.340   101932364.418        1915.565          28.000  
E21  28099645.813   147664660.473        1797.988          43.000    28099654.680   113145666.587        1377.852          40.000  
E27  27859049.040   146400313.654         531.762          36.000    27859061.299   112176893.917         407.469          34.000  
C37  25703161.213   133843102.329        2484.313          45.000                                                                  
C39  37376161.353   194627481.746        -525.079          43.000                                                                  
C06  37526345.235   195409516.854        -169.440          44.000    37526337.324   151103015.145        -130.986          39.000  
E29  25960775.502   136424790.322       -1295.807          33.000    25960777.004   104533281.678        -993.110          32.000  
J03  37383268.040   196450423.357        -650.006          42.000    37383270.876   153078239.561        -506.689          36.000  
E26  26685895.610   140235340.979       -3222.937          43.000    26685894.994   107453039.035       -2469.882          38.000  
J04                                                                  40580636.171   166170919.908          83.664          36.000  
> 2025 10 27 02 05 47.0050000  0 25                     
G23  21611098.263   113567120.934         178.042          44.000    21611093.180    88493821.188         138.656          36.000  
G25  23814517.076   125146125.251        2215.635          40.000    23814517.604    97516480.766        1725.159          31.000  
G24  23226867.526   122058011.187       -3504.568          42.000    23226869.622    95110148.1361      -2730.271          37.000  
G18  23159087.379   121701837.246       -3176.258          42.000    23159088.177    94832581.907       -2474.600          38.000  
C08  37868844.329   197193005.793         274.706          44.000    37868837.197   152482114.959         212.505          43.000  
C38  37441412.600   194967268.062         -21.625          43.000                                                                  
C13  38080131.178   198293237.087         372.357          34.000    38080131.271   153332908.4463        286.218          31.000  
C09  38695129.794   201495691.805         -24.607          33.000    38695124.837   155809233.387         -18.146          40.000  
C16  37921559.805   197467518.900        -364.620          43.000    37921557.687   152694408.011        -281.980          37.000  
C23  23574686.013   122759568.906         355.727          43.000                                                                  
R21  23689197.892   126765667.918       -4079.862          47.000    23689195.066    98595546.272       -3171.536          34.000  
R09  21297087.729   113725279.268        1239.493          49.000    21297084.932    88452968.175         963.294          33.000  
R22  22989246.835                        -959.546          25.000                                                                  
R16  22907209.743   122366227.6441      -2621.292          41.000    22907219.029                       -2037.458          25.000  
G12  24231937.071   127339699.6292        954.508          44.000    24231935.980    99225731.457         744.570          35.000  
G28  24892440.858   130810659.4133       2456.952          29.000    24892443.883   101930450.222        1913.301          28.000  
E21  28099305.931   147662862.579        1797.453          40.000    28099312.382   113144288.960        1376.480          31.000  
E27  27858952.518   146399782.720         530.498          41.000    27858959.844   112176487.212         407.159          34.000  
C37  25702686.916   133840618.106        2482.259          39.000                                                                  
C39  37376262.245   194628007.030        -524.634          44.000                                                                  
C06  37526377.757   195409686.483        -169.423          41.000    37526370.028   151103146.266        -130.416          39.000  
E29  25961021.828   136426084.840       -1292.744          34.000    25961022.825   104534273.678        -992.087          31.000  
J03  37383392.914   196451074.273        -651.294          42.000    37383394.699   153078746.785        -507.489          35.000  
E26  26686506.504   140238565.007       -3224.723          42.000    26686508.913   107455509.388       -2471.229          39.000  
J04                                                                  40580615.574   166170835.588          85.407          39.000  
> 2025 10 27 02 05 48.0050000  0 26                     
G23  21611064.296   113566942.805         177.799          44.000    21611060.550    88493682.412         138.578          40.000  
G25  23814093.755   125143909.116        2215.246          36.000    23814095.707                        1726.456          28.000  
G24  23227534.137   122061514.725       -3503.647          40.000    23227533.669    95112878.208       -2729.908          35.000  
S29  38306436.449   201301682.1122       -533.804          33.000  
G18  23159691.995   121705013.335       -3177.101          41.000    23159692.516    94835056.726       -2475.120          33.000  
C08  37868792.763   197192730.827         274.923          41.000    37868784.491   152481902.373         212.634          43.000  
C38  37441416.694   194967289.488         -21.631          43.000                                                                  
C13  38080060.045   198292866.028         370.852          32.000    38080055.832   153332604.5663        287.344          25.000  
C09  38695134.456   201495715.855         -25.393          34.000    38695129.574   155809251.924         -19.016          39.000  
C16  37921629.742   197467883.854        -365.344          37.000    37921629.409                1       -310.466          25.000  
C23  23574616.940   122759213.220         354.945          39.000                                                                  
R23  24988537.801                        1426.618          26.000                                                                  
R21  23689961.316   126769747.514       -4080.386          45.000    23689957.451    98598719.255       -3173.342          37.000  
R09  21296856.269   113724039.664        1238.581          47.000    21296852.728    88452004.107         962.999          33.000  
R22  22989422.524   122719097.7133       -963.194          31.000    22989469.253                        -749.604          24.000  
R16  22907691.409   122368848.962       -2621.184          37.000    22907705.919    95175774.0143      -2038.883          34.000  
G12  24231756.664   127338743.8912        955.011          41.000    24231756.912    99224986.793         744.554          31.000  
E21  28098960.615   147661064.249        1797.699          37.000    28098971.054                        1368.407          18.000  
E27  27858848.312   146399250.051         532.723          41.000    27858858.538   112176079.151         408.341          33.000  
C37  25702208.162   133838134.817        2481.473          31.000                                                                  
C39  37376363.114   194628531.889        -525.354          39.000                                                                  
C06  37526410.293   195409856.252        -170.432          39.000    37526402.776   151103277.627        -132.465          36.000  
E29  25961266.765   136427378.067       -1293.114          30.000    25961268.748   104535264.386        -990.314          32.000  
J03  37383516.912   196451725.068        -651.605          35.000    37383520.531                        -509.398          24.000  
E26  26687118.120   140241789.542       -3225.282          40.000    26687122.426   107457980.111       -2472.122          30.000  
J04                                                                  40580594.498   166170749.919          85.640          33.000  
> 2025 10 27 02 05 49.0050000  0 28                     
G23  21611030.492   113566764.399         178.194          43.000    21611025.833    88493543.365         138.838          41.000  
G25  23813672.154   125141693.037        2216.646          41.000    23813675.717    97513020.2151       1727.408          27.000  
G24  23228200.619   122065017.352       -3503.076          39.000    23228198.501    95115607.491       -2729.578          35.000  
S29  38306537.572   201302212.7723       -531.374          37.000  
G18  23160296.510   121708189.797       -3176.454          43.000    23160296.906    94837532.197       -2475.309          38.000  
C08  37868739.480   197192455.103         275.574          35.000    37868731.618   152481689.167         213.076          42.000  
C38  37441421.001   194967310.281         -20.990          38.000                                                                  
C13  38079988.657   198292494.141         371.117          26.000    38079986.718   153332317.1392        287.295          27.000  
C09  38695139.108   201495740.071         -23.987          34.000    38695134.271   155809270.579         -18.132          39.000  
C16  37921699.919   197468248.744        -365.114          36.000    37921699.899   152694970.8353       -282.109          35.000  
C23  23574548.478   122758857.543         355.611          39.000                                                                  
R23  24988274.602                        1426.052          26.000    24987663.373                        1449.160          20.000  
R21  23690723.719   126773827.495       -4079.537          43.000    23690719.957    98601892.773       -3173.202          33.000  
R09  21296624.294   113722800.477        1239.197          42.000    21296620.819    88451040.334         963.579          43.000  
R22  22989602.961   122720061.3282       -964.265          37.000    22989646.515    95449117.3243       -749.777          33.000  
R16  22908182.446   122371469.739       -2621.389          37.000    22908194.866    95177805.3432      -2038.947          37.000  
G12  24231575.212   127337787.989         955.857          41.000    24231572.079    99224242.021         744.926          33.000  
S37  37901917.349   199175919.0152       -530.769          39.000  
G28  24891513.217                        2458.267          23.000    24891515.158   101926593.0121       1913.380          26.000  
E21  28098619.229   147659265.752        1799.071          37.000    28098629.081   113141535.1911       1378.562          36.000  
E27  27858748.095   146398716.991         533.237          41.000    27858757.268   112175670.765         408.572          41.000  
C37  25701731.101   133835652.012        2483.491          35.000                                                                  
C39  37376463.902   194629056.490        -524.512          36.000                                                                  
C06  37526443.006   195410025.995        -169.476          34.000    37526435.647   151103409.058        -131.036          34.000  
E29  25961511.760   136428669.984       -1292.395          24.000    25961515.080   104536254.408        -990.074          34.000  
J03  37383640.911   196452376.010        -650.189          37.000    37383645.089   153079777.1011       -506.915          30.000  
E26  26687733.049   140245014.361       -3224.263          41.000    26687735.965   107460451.042       -2470.275          36.000  
J04                                                                  40580573.317   166170663.497          86.184          37.000  
> 2025 10 27 02 05 50.0050000  0 29                     
G23  21610996.723   113566586.819         177.420          43.000    21610991.373    88493405.002         138.329          42.000  
G25  23813250.661   125139476.949        2216.112          41.000    23813252.221    97511293.368        1726.750          28.000  
G24  23228867.295   122068520.817       -3503.467          39.000    23228865.016    95118337.463       -2729.582          35.000  
S29  38306638.790   201302744.0732       -531.503          38.000  
G18  23160901.042   121711366.566       -3176.926          44.000    23160901.020    94840007.624       -2475.491          39.000  
C08  37868686.592   197192179.873         275.157          39.000    37868678.885   152481476.350         212.678          42.000  
C38  37441425.056   194967331.473         -21.082          42.000                                                                  
C13  38079917.539   198292122.775         370.972          30.000    38079916.149   153332029.9752        286.596          29.000  
C09  38695143.711   201495764.279         -24.326          35.000    38695139.041   155809289.333         -18.698          40.000  
C16  37921770.048   197468613.868        -365.183          38.000    37921769.554   152695253.1772       -282.097          37.000  
C23  23574480.268   122758502.478         355.135          44.000                                                                  
R23  24988008.712                        1426.375          25.000                                                                  
R21  23691486.043   126777907.447       -4080.022          44.000    23691482.474    98605065.986       -3171.760          34.000  
R09  21296392.474   113721561.985        1238.192          41.000    21296388.990    88450077.075         962.898          42.000  
R22  22989785.730   122721026.3002       -965.377          37.000    22989824.829    95449867.8562       -749.672          31.000  
R16  22908674.341   122374091.850       -2622.106          37.000    22908685.049    95179844.7682      -2039.849          36.000  
G12  24231393.371   127336832.454         955.396          43.000    24231388.631    99223497.486         744.525          35.000  
S37  37902018.624   199176450.3172       -531.282          40.000  
G28  24891078.241   130803498.9373       2455.064          26.000    24891060.436   101924680.329        1913.066          29.000  
E21  28098277.982   147657466.956        1799.178          38.000    28098286.353   113140156.887        1378.630          36.000  
E27  27858647.848   146398184.306         532.473          41.000    27858656.145   112175262.604         408.017          40.000  
C37  25701254.266   133833168.935        2483.272          40.000                                                                  
C39  37376564.649   194629581.448        -524.866          39.000                                                                  
C06  37526475.646   195410196.008        -169.995          39.000    37526468.533   151103540.540        -131.889          34.000  
E29  25961755.858   136429962.496       -1292.283          23.000    25961761.387   104537244.750        -990.206          34.000  
J03  37383764.759   196453026.731        -650.586          37.000    37383769.556   153080284.207        -507.178          32.000  
E26  26688347.897   140248239.033       -3224.426          41.000    26688349.605   107462921.907       -2470.995          37.000  
G10  23799924.400   125069446.3263       2220.829          30.000                                                                  
J04                                                                  40580552.346   166170577.327          86.300          39.000  
> 2025 10 27 02 05 51.0050000  0 29                     
G23  21610963.064   113566409.948         176.207          43.000    21610958.027    88493267.172         137.380          42.000  
G25  23812829.036   125137261.336        2215.313          41.000    23812829.634    97509555.8541       1726.330          28.000  
G24  23229534.016   122072024.695       -3504.594          41.000    23229533.479    95121055.7511      -2730.774          36.000  
S29  38306740.030   201303275.8602       -531.980          38.000  
G18  23161505.780   121714544.161       -3178.189          44.000    23161505.455    94842483.634       -2476.406          39.000  
C08  37868633.781   197191904.896         274.456          40.000    37868626.126   152481263.742         212.280          44.000  
C38  37441429.057   194967353.007         -21.954          43.000                                                                  
C13  38079846.340   198291751.798         370.094          31.000    38079844.736   153331742.983         287.658          29.000  
C09  38695148.421   201495789.021         -25.270          38.000    38695143.901   155809308.484         -19.400          40.000  
C16  37921840.262   197468979.464        -365.868          39.000    37921839.101   152695535.3951       -283.389          36.000  
C23  23574412.117   122758148.228         353.488          45.000                                                                  
R23  24987746.410                        1425.792          25.000                                                                  
R21  23692248.461   126781988.004       -4080.698          44.000    23692244.975    98608239.718       -3174.690          33.000  
R09  21296160.868   113720324.478        1236.605          42.000    21296157.380    88449114.559         961.858          42.000  
R22  22989968.251   122721992.2262       -966.863          35.000    22990003.769    95450619.1052       -751.449          31.000  
R16  22909164.737   122376714.804       -2623.937          36.000    22909172.472    95181884.8302      -2040.591          34.000  
G12  24231211.622   127335877.499         954.340          43.000    24231206.402    99222753.360         744.036          34.000  
S37  37902119.904   199176981.9612       -532.048          40.000  
G28  24890633.870                        2457.185          25.000    24890600.600   101922768.115        1911.476          30.000  
E21  28097936.624   147655668.474        1798.110          38.000    28097942.664   113138778.820        1378.022          35.000  
E27  27858547.092   146397652.000         531.602          41.000    27858555.025   112174854.744         407.325          40.000  
C37  25700777.475   133830686.472        2481.806          39.000                                                                  
C39  37376665.385   194630106.928        -525.928          39.000                                                                  
C06  37526508.478   195410366.522        -171.032          39.000    37526501.365   151103672.322        -132.223          35.000  
E29  25961998.792                       -1294.587          23.000    25962007.743   104538235.227        -990.519          35.000  
J03  37383888.816   196453677.939        -651.270          38.000    37383893.516   153080791.627        -507.660          33.000  
E26  26688962.462   140251464.227       -3225.732          41.000    26688963.068   107465393.112       -2471.567          37.000  
G10  23799502.024   125067226.9212       2218.479          29.000                                                                  
J04                                                                  40580531.395   166170491.266          85.561          39.000  
> 2025 10 27 02 05 52.0050000  0 27                     
G23  21610929.490   113566233.555         176.026          44.000    21610924.627    88493129.738         137.372          42.000  
G25  23812407.419   125135045.756        2215.382          41.000    23812408.000    97507829.535        1726.293          28.000  
G24  23230200.849   122075529.086       -3504.343          41.000    23230202.305    95123786.509       -2730.898          34.000  
S29  38306841.259   201303807.0982       -530.851          41.000  
G18  23162110.415   121717721.561       -3177.026          43.000    23162109.870    94844959.610       -2476.319          34.000  
C08  37868580.988   197191630.086         274.579          41.000    37868573.345   152481051.176         212.692          43.000  
C38  37441433.114   194967374.671         -22.052          44.000                                                                  
C13  38079775.045   198291380.745         371.051          28.000    38079771.853   153331456.011         286.597          30.000  
C09  38695153.041   201495813.318         -24.175          38.000    38695148.655   155809327.213         -17.542          36.000  
C16  37921910.429   197469344.963        -365.292          38.000    37921906.569   152695818.194        -284.498          28.000  
C23  23574343.945   122757794.424         353.554          46.000                                                                  
R21  23693010.738   126786067.983       -4079.403          48.000    23693007.583    98611413.108       -3172.222          19.000  
R09  21295929.375   113719087.844        1235.871          46.000    21295925.963    88448152.725         961.602          37.000  
R22  22990145.740   122722958.5602       -965.798          35.000    22990183.721                        -754.391          26.000  
R16  22909656.421   122379338.865       -2624.712          39.000    22909660.781    95183925.6842      -2041.674          33.000  
G12  24231030.044   127334923.201         953.595          43.000    24231024.765    99222009.750         742.817          33.000  
S37  37902221.156   199177513.4632       -531.794          39.000  
G28  24890176.093                        2448.640          23.000    24890140.413   101920855.850        1912.748          29.000  
E21  28097594.849   147653869.854        1798.456          37.000    28097600.679   113137400.568        1378.056          34.000  
E27  27858446.387   146397120.362         531.372          42.000    27858453.907   112174447.378         406.577          39.000  
C37  25700300.523   133828203.567        2482.989          40.000                                                                  
C39  37376766.150   194630632.333        -525.116          39.000                                                                  
C06  37526541.246   195410536.823        -170.164          40.000    37526534.117   151103803.971        -131.780          36.000  
E29  25962246.234   136432523.9831      -1292.953          25.000    25962253.796   104539225.779        -990.597          33.000  
J03  37384012.685   196454328.953        -650.653          39.000    37384016.033   153081298.880        -506.824          30.000  
E26  26689576.216   140254689.227       -3225.029          40.000    26689576.399   107467864.275       -2471.661          33.000  
J04                                                                  40580510.394   166170405.341          85.315          34.000  
> 2025 10 27 02 05 53.0050000  0 28                     
G23  21610896.069   113566057.640         175.362          47.000    21610891.287    88492992.672         136.164          41.000  
G25  23811986.113   125132830.767        2215.023          44.000    23811988.874    97506103.619        1726.311          33.000  
G24  23230867.879   122079034.416       -3505.293          35.000    23230870.474    95126518.098       -2733.337          29.000  
S29  38306942.222   201304336.7812       -530.215          45.000  
G18  23162714.937   121720898.358       -3177.597          47.000    23162714.303    94847435.029       -2476.642          33.000  
C08  37868528.207   197191355.341         273.744          40.000    37868520.648   152480838.790         211.128          37.000  
C38  37441437.351   194967396.738         -23.492          42.000                                                                  
C09  38695157.510   201495836.544         -24.427          41.000    38695151.586                1        -18.817          35.000  
C16  37921980.525   197469709.911        -366.082          44.000    37921976.455   152696100.262        -282.811          38.000  
C23  23574275.938   122757441.350         352.382          48.000                                                                  
R21  23693772.788   126790146.647       -4079.471          46.000    23693769.861    98614585.7432      -3173.442          30.000  
R09  21295698.153   113717852.269        1234.598          50.000    21295694.724    88447191.766         959.982          39.000  
R22  22990328.944                        -966.323          28.000                                                                  
R16  22910147.893   122381964.529       -2624.475          40.000    22910153.101    95185968.0162      -2043.306          28.000  
G12  24230848.659   127333970.580         952.019          46.000    24230843.445    99221267.445         742.209          33.000  
S37  37902322.391   199178045.0282       -533.143          41.000  
E21  28097252.230   147652071.411        1797.950          38.000    28097259.419   113136022.602        1377.531          40.000  
E27  27858346.089   146396590.392         530.483          43.000    27858352.842   112174041.301         405.928          40.000  
C37  25699823.415   133825719.986        2482.915          43.000                                                                  
C39  37376866.914   194631157.118        -525.800          45.000                                                                  
C06  37526573.698   195410706.380        -170.393          41.000    37526566.847   151103935.068        -131.266          40.000  
E29  25962492.994   136433816.866       -1294.258          24.000    25962500.122   104540216.455        -990.678          31.000  
J03  37384136.735   196454979.837        -650.531          44.000    37384138.132   153081806.190        -507.794          37.000  
E26  26690189.066   140257913.931       -3224.925          43.000    26690190.342   107470335.224       -2470.607          40.000  
C13                                                                  38079703.551   153331169.036         285.296          28.000  
C10                                                                  41583259.446   167438554.2972       -937.746          30.000  
J04                                                                  40580489.324   166170319.547          85.576          39.000  
G28                                                                  24889670.627                        1912.497          20.000  
> 2025 10 27 02 05 54.0050000  0 29                     
G23  21610862.929   113565883.145         174.374          46.000    21610858.180    88492856.660         136.221          41.000  
G25  23811564.690   125130615.396        2215.128          41.000    23811567.808    97504377.371        1726.986          36.000  
G24  23231535.339   122082541.571       -3506.737          34.000    23231537.622    95129250.966       -2734.521          31.000  
S29  38307043.089   201304866.4672       -529.411          44.000  
G18  23163319.393   121724074.965       -3176.668          46.000    23163318.645    94849910.244       -2474.294          33.000  
C08  37868475.586   197191081.754         274.540          39.000    37868468.105   152480627.255         211.471          37.000  
C38  37441441.746   194967419.552         -23.267          43.000                                                                  
C13  38079635.662                         363.573          26.000    38079634.964                         284.944          20.000  
C09  38695162.004   201495859.779         -22.745          38.000    38695154.514   155809358.3323        -16.263          28.000  
C16  37922050.653   197470075.175        -365.345          43.000    37922048.111   152696382.703        -282.328          42.000  
C23  23574208.111   122757088.940         352.381          46.000                                                                  
R23  24987038.608                        1427.266          22.000                                                                  
R21  23694534.839   126794224.661       -4076.802          40.000    23694532.107    98617757.6322      -3171.951          31.000  
R09  21295466.884   113716617.446        1234.605          48.000    21295463.529    88446231.386         960.156          39.000  
R22  22990506.978   122724886.8593       -966.084          35.000                                                                  
R16  22910640.004   122384592.563       -2627.787          37.000    22910644.501    95188011.5082      -2045.864          28.000  
G12  24230667.515   127333018.294         952.837          46.000    24230662.543    99220525.440         742.017          38.000  
S37  37902423.540   199178576.3012       -530.873          43.000  
G28  24889217.316                        2445.461          26.000    24889206.172                        1908.524          21.000  
E21  28096909.854   147650272.173        1798.942          41.000    28096916.412   113134644.005        1378.677          39.000  
E27  27858245.654   146396061.101         530.076          40.000    27858251.629   112173635.695         405.725          38.000  
C37  25699346.349   133823235.804        2483.533          43.000                                                                  
C39  37376967.848   194631682.477        -525.275          44.000                                                                  
C06  37526606.304   195410876.133        -169.468          40.000    37526599.427   151104066.314        -131.157          36.000  
E29  25962748.205   136435162.0391      -1293.018          31.000    25962746.080   104541208.147        -991.530          31.000  
J03  37384260.526   196455630.160        -650.232          42.000    37384262.491   153082312.921        -506.000          37.000  
E26  26690802.368   140261138.000       -3223.437          44.000    26690804.032   107472805.708       -2470.471          39.000  
C10                                                                  41583498.558   167439492.9342       -938.726          30.000  
J04                                                                  40580468.539   166170234.421          84.742          37.000  
> 2025 10 27 02 05 55.0050000  0 28                     
G23  21610829.932   113565709.490         173.588          46.000    21610825.162    88492721.382         135.211          41.000  
G25  23811143.346   125128400.307        2215.279          45.000    23811146.133    97502651.343        1727.253          36.000  
G24  23232202.954   122086049.436       -3507.364          38.000    23232205.305    95131984.247       -2733.223          34.000  
S29  38307144.185   201305396.6262       -530.065          42.000  
G18  23163924.069   121727252.269       -3177.000          45.000    23163923.188    94852386.182       -2476.545          38.000  
C08  37868423.112   197190808.705         272.617          37.000    37868415.618   152480416.087         210.840          36.000  
C38  37441445.980   194967442.877         -23.816          43.000                                                                  
C13  38079564.531   198290284.8003        370.401          26.000    38079565.134                         285.158          23.000  
C09  38695166.425   201495883.525         -23.702          40.000    38695161.881   155809381.3823        -18.575          34.000  
C16  37922120.789   197470440.893        -365.707          44.000    37922118.535   152696665.552        -282.758          42.000  
C23  23574140.275   122756737.265         351.649          47.000                                                                  
R21  23695297.015   126798303.398       -4078.231          39.000    23695294.364    98620929.697       -3172.501          25.000  
R09  21295235.933   113715383.615        1234.185          49.000    21295232.613    88445271.754         959.903          37.000  
R22  22990688.415   122725855.7963       -968.508          37.000                                                                  
R16  22911132.285   122387221.526       -2628.008          38.000    22911136.988    95190029.3273      -2046.408          29.000  
G12  24230486.408   127332066.612         951.895          42.000    24230481.665    99219783.934         741.262          36.000  
S37  37902524.645   199179107.8262       -530.605          42.000  
G28  24888738.966                        2456.811          26.000    24888741.592                        1915.609          23.000  
E21  28096567.357   147648473.054        1799.846          43.000    28096573.935   113133265.427        1379.330          42.000  
E27  27858145.131   146395532.296         529.494          42.000    27858150.986   112173230.541         405.362          40.000  
C37  25698869.482   133820752.047        2484.346          44.000                                                                  
C39  37377068.814   194632208.495        -526.666          44.000                                                                  
C06  37526638.916   195411046.398        -170.357          41.000    37526632.164   151104198.007        -131.809          35.000  
E29  25962999.718                       -1293.417          28.000    25962993.667                        -989.648          28.000  
J03  37384384.398   196456280.863        -649.469          43.000    37384386.726   153082820.032        -507.147          39.000  
E26  26691415.183   140264362.604       -3224.350          43.000    26691417.640   107475276.518       -2470.758          35.000  
C10                                                                  41583732.655                        -937.848          23.000  
J04                                                                  40580447.696   166170149.421          85.477          36.000  
> 2025 10 27 02 05 56.0050000  0 26                     
G23  21610797.252   113565537.333         168.911          42.000    21610792.420    88492587.177         131.402          39.000  
G25  23810722.120   125126186.155        2212.201          42.000    23810724.120    97500926.052        1724.084          37.000  
G24  23232870.752   122089558.073       -3510.711          32.000    23232872.860    95134718.469       -2738.284          29.000  
S29  38307245.461   201305927.972        -534.519          46.000  
G18  23164528.987   121730431.018       -3181.163          44.000    23164527.932    94854863.072       -2479.567          38.000  
C08  37868370.919   197190536.742         268.414          34.000    37868363.398   152480205.873         205.573          30.000  
C38  37441450.534   194967467.238         -28.247          38.000                                                                  
C09  38695171.207   201495908.590         -28.761          38.000    38695167.246   155809400.6502        -22.186          35.000  
C16  37922191.162   197470808.069        -371.705          42.000    37922189.167   152696949.356        -286.022          39.000  
C23  23574072.939   122756387.169         347.369          46.000                                                                  
R21  23696059.237   126802383.119       -4082.350          48.000    23696056.859    98624102.839       -3176.201          26.000  
R09  21295005.185   113714151.604        1228.608          48.000    21295001.945    88444313.418         955.488          38.000  
R16  22911624.769   122389851.809       -2632.750          36.000    22911630.067    95192074.9732      -2047.048          28.000  
G12  24230305.417   127331115.902         948.863          41.000    24230301.030    99219043.069         740.296          37.000  
S37  37902626.022   199179640.4822       -535.064          42.000  
G28  24888258.967   130788683.2243       2452.329          27.000    24888278.487                        1913.609          25.000  
E21  28096224.715   147646674.663        1797.189          43.000    28096232.411   113131887.417        1377.505          43.000  
E27  27858044.162   146395004.158         528.177          41.000    27858050.481   112172825.850         404.508          39.000  
C37  25698392.772   133818269.487        2479.820          42.000                                                                  
C39  37377169.928   194632735.813        -530.402          44.000                                                                  
C06  37526671.873   195411217.962        -174.545          41.000    37526665.211   151104330.755        -138.095          36.000  
E29  25963244.154                       -1294.052          27.000    25963242.672   104543208.9191       -995.010          26.000  
J03  37384508.611   196456932.498        -653.076          43.000    37384510.908   153083327.777        -509.650          41.000  
E26  26692029.397   140267588.259       -3227.919          45.000    26692031.376   107477748.128       -2473.409          40.000  
C13                                                                  38079493.909                         286.718          23.000  
J04                                                                  40580427.035   166170065.021          82.734          37.000  
> 2025 10 27 02 05 57.0050000  0 28                     
G23  21610764.408   113565365.107         175.862          44.000    21610759.655    88492452.953         136.071          37.000  
G25  23810300.921   125123972.431        2216.778          43.000    23810303.566    97499200.954        1726.710          34.000  
G24  23233541.275                1      -3505.060          27.000    23233539.356                       -2730.159          19.000  
S29  38307346.633   201306459.657        -528.144          44.000  
G18  23165133.922   121733610.593       -3176.559          42.000    23165132.782    94857340.427       -2475.330          35.000  
C08  37868318.625   197190264.137         275.869          34.000    37868310.962   152479994.823         213.092          34.000  
C38  37441455.320   194967491.213         -19.977          40.000                                                                  
C09  38695176.222   201495934.095         -22.755          43.000    38695171.826   155809419.8571        -17.057          38.000  
C16  37922261.609   197471175.366        -364.352          44.000    37922259.786   152697233.318        -281.228          41.000  
C23  23574005.873   122756037.348         353.335          47.000                                                                  
R21  23696821.526   126806463.750       -4078.344          50.000    23696819.349    98627277.1022      -3173.656          31.000  
R09  21294774.526   113712919.992        1234.684          47.000    21294771.313    88443355.550         958.743          33.000  
R22  22991052.235   122727797.2372       -968.843          38.000                                                                  
R16  22912117.711   122392420.1973      -2628.983          33.000                                                                  
G12  24230124.552   127330165.276         953.284          39.000    24230120.380    99218302.372         742.374          35.000  
S37  37902727.368   199180173.145        -529.197          43.000  
G28  24887781.737                        2450.694          28.000    24887809.880   101911420.6731       1910.556          25.000  
E21  28095882.129   147644876.502        1799.866          41.000    28095890.436   113130509.643        1378.373          40.000  
E27  27857943.589   146394476.084         530.361          36.000    27857950.972   112172424.2891        406.420          39.000  
C37  25697916.174   133815787.549        2483.727          46.000                                                                  
C39  37377271.324   194633263.166        -523.639          45.000                                                                  
C06  37526704.884   195411389.919        -169.108          41.000    37526698.243   151104463.578        -130.547          41.000  
C10  41584031.431                       -1218.602          22.000                                                                  
E29  25963483.141   136439024.1421      -1289.796          32.000    25963495.968   104544239.2921       -990.524          27.000  
J03  37384632.795   196457584.651        -648.730          43.000    37384634.931   153083835.862        -505.591          38.000  
E26  26692643.093   140270814.641       -3224.280          46.000    26692645.405   107480220.278       -2470.954          40.000  
C13                                                                  38079423.965                         284.866          23.000  
J04                                                                  40580406.877                          87.100          33.000  
> 2025 10 27 02 05 58.0050000  0 28                     
G23  21610731.313   113565191.050         170.795          43.000    21610726.619    88492317.293         133.921          39.000  
G25  23809879.358   125121757.019        2214.175          41.000    23809880.499    97497474.817        1724.257          35.000  
G24  23234205.373   122096573.0003      -3509.803          33.000    23234205.677                       -2733.353          23.000  
S29  38307447.579   201306989.268        -531.862          43.000  
G18  23165738.719   121736788.650       -3180.175          41.000    23165737.639    94859817.076       -2477.933          39.000  
C08  37868265.816   197189989.359         271.245          36.000    37868257.931   152479782.350         209.913          33.000  
C38  37441459.659   194967512.888         -24.548          39.000                                                                  
C09  38695180.718   201495957.742         -26.521          34.000    38695175.786   155809438.178         -21.349          32.000  
C16  37922331.757   197471540.412        -367.410          39.000    37922330.015   152697515.751        -284.121          37.000  
C23  23573938.422   122755685.705         349.122          45.000                                                                  
R23  24985930.407                        1420.255          25.000                                                                  
R21  23697583.781   126810542.999       -4080.357          46.000    23697581.561    98630449.3342      -3169.730          30.000  
R09  21294543.609   113711686.883        1230.818          48.000    21294540.387    88442396.461         957.753          36.000  
R22  22991230.972   122728751.6433       -971.530          31.000                                                                  
R16  22912608.572   122395049.2282      -2631.947          38.000                                                                  
G12  24229943.336   127329213.205         950.447          41.000    24229939.311    99217560.466         740.159          36.000  
S37  37902828.302   199180703.447        -532.441          41.000  
G28  24887307.775                        2478.782          27.000    24887348.423                        1911.890          25.000  
E21  28095539.533   147643076.771        1798.868          42.000    28095547.798   113129130.536        1377.744          36.000  
E27  27857842.843   146393946.469         528.547          41.000    27857848.101   112172018.388         403.650          31.000  
C37  25697439.210   133813304.242        2482.150          39.000                                                                  
C39  37377372.173   194633788.249        -527.869          42.000                                                                  
C06  37526737.498   195411559.574        -171.501          37.000    37526730.892   151104594.815        -133.390          40.000  
E29  25963737.745   136440314.948       -1292.186          32.000    25963740.879                        -991.158          24.000  
J03  37384756.621   196458234.957        -651.990          44.000    37384758.552   153084342.643        -507.446          36.000  
E26  26693256.370   140274039.291       -3225.796          41.000    26693258.984   107482691.077       -2472.145          36.000  
C13                                                                  38079352.241                         286.210          24.000  
J04                                                                  40580387.044   166169895.4671         84.577          38.000  
> 2025 10 27 02 05 59.0050000  0 28                     
G23  21610698.525   113565018.983         172.599          42.000    21610693.927    88492183.176         135.017          37.000  
G25  23809457.806   125119541.488        2217.457          39.000    23809458.341    97495748.580        1726.694          34.000  
G24  23234871.037   122100081.7152      -3506.705          36.000    23234872.457    95142918.3501      -2733.449          30.000  
S29  38307548.300   201307519.084        -527.512          39.000  
G18  23166343.507   121739966.703       -3176.652          44.000    23166342.434    94862293.416       -2475.444          36.000  
C08  37868213.436   197189716.288         272.816          38.000    37868206.494   152479574.8003        212.502          36.000  
C38  37441463.964   194967536.139         -22.632          44.000                                                                  
C09  38695185.189   201495981.471         -22.021          36.000    38695180.993   155809456.503         -17.024          37.000  
C16  37922401.994   197471906.311        -364.741          38.000    37922399.086                1       -282.016          30.000  
C23  23573871.265   122755335.298         351.046          44.000                                                                  
R23  24985660.292   133656457.5943       1421.052          26.000                                                                  
R21  23698345.821   126814621.734       -4076.112          41.000    23698343.681    98633621.0442      -3171.255          34.000  
R09  21294313.032   113710455.128        1232.352          48.000    21294309.792    88441438.497         957.813          40.000  
R22  22991414.740   122729732.9332       -970.403          37.000                                                                  
R16  22913101.069   122397673.0303      -2630.614          41.000    22913107.876    95198217.8813      -2046.184          31.000  
G12  24229762.345   127328262.162         951.304          41.000    24229758.430    99216819.451         740.450          33.000  
S37  37902929.268   199181234.175        -528.784          41.000  
G28  24886837.707                        2462.350          26.000    24886890.526                        1910.411          23.000  
E21  28095196.556   147641276.349        1800.930          43.000    28095205.079   113127751.110        1379.513          39.000  
E27  27857742.136   146393417.979         528.419          41.000    27857748.365   112171613.443         403.752          28.000  
C37  25696962.106   133810820.214        2486.323          39.000                                                                  
C39  37377473.243   194634314.452        -524.707          42.000                                                                  
C06  37526770.210   195411729.832        -167.743          36.000    37526763.671   151104726.485        -130.883          31.000  
E29  25963977.597   136441623.0861      -1295.172          28.000    25963985.370                        -998.148          21.000  
J03  37384880.454   196458884.947        -648.492          42.000    37384882.292   153084849.143        -505.780          34.000  
E26  26693868.866   140277263.558       -3222.140          35.000    26693873.058   107485161.618       -2470.104          38.000  
C13                                                                  38079280.957                         291.168          22.000  
J04                                                                  40580365.293   166169809.797          86.723          33.000  
> 2025 10 27 02 06 00.0050000  0 28                     
G23  21610665.782   113564846.687         173.501          40.000    21610661.326    88492048.996         134.501          35.000  
G25  23809036.200   125117325.609        2216.543          39.000    23809036.655    97494021.870        1727.031          30.000  
G24  23235539.680   122103590.1332      -3506.300          40.000    23235535.412    95145652.120       -2733.174          23.000  
S29  38307648.952   201308048.109        -527.976          38.000  
G18  23166948.181   121743144.490       -3178.212          43.000    23166947.184    94864769.582       -2476.799          35.000  
C08  37868160.903   197189442.645         274.430          36.000    37868153.906   152479363.1632        212.391          35.000  
C38  37441468.018   194967558.818         -21.271          39.000                                                                  
C13  38079206.138                         372.135          22.000    38079210.372                         281.373          20.000  
C09  38695189.666   201496004.611         -22.707          33.000    38695185.708   155809474.392         -17.775          34.000  
C16  37922472.218   197472271.710        -364.779          39.000    37922470.340   152698073.6713       -282.594          31.000  
C23  23573803.943   122754984.778         350.971          43.000                                                                  
R23  24985392.753   133655036.5392       1421.320          25.000    24984389.872                        1213.506          12.000  
R21  23699108.054   126818700.223       -4079.149          41.000    23699105.786    98636792.8482      -3172.117          31.000  
R09  21294082.483   113709223.586        1231.925          46.000    21294079.258    88440480.619         957.818          40.000  
R16  22913594.001   122400304.8552      -2630.876          38.000    22913601.586                       -2044.222          23.000  
G12  24229581.244   127327310.821         951.812          40.000    24229577.529    99216078.107         742.129          32.000  
S37  37903030.096   199181764.366        -529.962          38.000  
G28  24886372.355                        2454.893          26.000    24886433.285                        1911.648          20.000  
E21  28094853.525   147639475.174        1801.263          39.000    28094862.288   113126371.024        1379.996          31.000  
E27  27857641.440   146392889.086         529.834          38.000    27857647.971   112171208.089         406.181          33.000  
C37  25696485.079   133808335.708        2484.069          35.000                                                                  
C39  37377574.104   194634840.146        -526.038          36.000                                                                  
C06  37526802.859   195411899.803        -169.651          36.000    37526796.136   151104857.677        -130.806          30.000  
E29  25964228.955                       -1289.585          28.000    25964230.842                        -998.755          21.000  
J03  37385004.103   196459534.313        -648.840          40.000    37385005.808   153085355.131        -505.829          35.000  
E26  26694483.294   140280487.393       -3223.751          39.000    26694486.612   107487631.778       -2470.300          31.000  
J04                                                                  40580345.765   166169731.7651         86.392          29.000  
R05                                                                  26080767.952                       -1834.828          12.000  
> 2025 10 27 02 06 01.0050000  0 29                     
G23  21610632.972   113564673.909         173.323          41.000    21610628.494    88491914.273         136.136          36.000  
G25  23808614.388   125115109.013        2217.193          43.000    23808615.088    97492294.453        1727.463          34.000  
G24  23236208.256   122107097.642       -3506.096          45.000    23236204.617    95148385.240       -2732.705          31.000  
S29  38307749.672   201308576.823        -531.571          34.000  
G18  23167552.858   121746322.089       -3178.327          41.000    23167551.961    94867245.693       -2476.940          32.000  
C08  37868108.232   197189168.201         274.465          35.000    37868099.632   152479150.9042        212.301          38.000  
C38  37441472.293   194967580.648         -21.057          36.000                                                                  
C13  38079135.199                         370.200          30.000    38079139.149                         287.129          28.000  
C09  38695194.051   201496027.586         -22.932          36.000    38695190.701                1        -16.297          26.000  
C16  37922542.473   197472636.786        -365.864          34.000    37922540.420   152698355.8572       -283.004          32.000  
C23  23573736.585   122754633.919         351.255          42.000                                                                  
R21  23699870.065   126822791.1733      -4078.174          41.000    23699869.796    98639947.9783      -3172.666          25.000  
R09  21293851.872   113707991.775        1232.574          48.000    21293848.615    88439522.426         959.104          37.000  
R22  22991788.186   122731726.1003       -972.338          32.000                                                                  
R16  22914089.440   122402936.170       -2631.742          35.000    22914095.361                       -2045.834          24.000  
G12  24229399.906   127326358.780         953.506          43.000    24229396.436    99215336.187         742.568          34.000  
S37  37903130.800   199182293.737        -528.946          38.000  
G28  24885914.520                        2453.798          25.000    24885980.667                        1912.510          21.000  
E21  28094510.958   147637673.183        1802.992          44.000    28094519.186   113124990.112        1380.696          33.000  
E27  27857540.815   146392359.206         531.895          43.000    27857546.590   112170802.023         407.924          35.000  
C37  25696007.913   133805850.992        2485.076          39.000                                                                  
C39  37377675.067   194635365.329        -525.763          36.000                                                                  
C06  37526835.437   195412069.263        -169.844          34.000    37526828.183                        -130.469          31.000  
E29  25964474.746   136444235.6941      -1293.493          33.000    25964472.267                        -988.471          24.000  
J03  37385127.602   196460183.205        -649.078          41.000    37385129.188   153085860.775        -505.292          36.000  
E26  26695096.595   140283710.873       -3224.674          40.000    26695099.778   107490101.499       -2469.955          33.000  
J04                                                                  40580324.232   166169644.707          88.655          29.000  
R23                                                                  24984098.096                        1213.506          10.000  
R05                                                                  26081210.321                       -1834.828          13.000  
> 2025 10 27 02 06 02.0050000  0 28                     
G23  21610600.054   113564500.916         174.207          43.000    21610595.616    88491779.562         137.425          33.000  
G25  23808192.246   125112890.720        2218.671          41.000    23808193.302    97490565.985        1727.084          32.000  
G24  23236874.399   122110604.805       -3506.001          40.000    23236875.316    95151118.225       -2732.715          32.000  
S29  38307850.163   201309105.246        -527.139          36.000  
G18  23168157.466   121749499.437       -3177.395          42.000    23168156.395    94869721.507       -2475.708          32.000  
C08  37868055.381   197188893.133         275.609          33.000    37868047.792   152478938.2542        213.398          32.000  
C38  37441476.489   194967601.700         -20.526          37.000                                                                  
C13  38079063.174   198287673.7603        371.199          34.000    38079066.957   153328622.6013        288.246          28.000  
C09  38695198.397   201496050.093         -20.960          33.000    38695194.979   155809515.4953        -16.976          31.000  
C16  37922612.306   197473001.339        -364.175          34.000    37922610.382   152698637.8412       -280.808          31.000  
C23  23573669.008   122754282.165         350.674          39.000                                                                  
R21  23700632.093   126826868.8472      -4078.847          32.000                                                                  
R09  21293620.985   113706759.061        1233.256          45.000    21293617.794    88438563.673         956.649          39.000  
R22  22991980.921   122732754.8152       -970.084          27.000                                                                  
R16  22914583.883   122405567.298       -2629.906          38.000                                                                  
G12  24229218.362   127325405.099         953.283          43.000    24229215.201    99214592.996         744.210          35.000  
S37  37903231.241   199182821.635        -527.379          40.000  
G28  24885461.169                        2464.701          25.000    24885508.116                        1910.783          20.000  
E21  28094167.887   147635869.314        1803.357          39.000    28094176.002   113123608.005        1382.794          35.000  
E27  27857439.590   146391827.682         530.706          42.000    27857446.038   112170394.730         407.348          41.000  
C37  25695530.624   133803365.424        2486.044          35.000                                                                  
C39  37377775.819   194635890.242        -523.804          35.000                                                                  
C06  37526867.789   195412238.455        -168.096          34.000    37526860.071   151105114.2783       -132.622          30.000  
E29  25964714.919   136445528.199       -1292.324          39.000    25964716.919                        -991.407          24.000  
J03  37385250.905   196460830.593        -647.552          38.000    37385252.308   153086365.172        -503.503          29.000  
E26  26695709.775   140286933.071       -3222.156          42.000    26695714.546   107492579.5661      -2469.978          33.000  
J04                                                                  40580301.678   166169556.920          88.835          36.000  
R05                                                                  26081651.434                       -1834.828          12.000  
> 2025 10 27 02 06 03.0050000  0 26                     
G23  21610567.412   113564329.100         171.631          42.000    21610563.038    88491645.616         134.491          35.000  
G25  23807770.242   125110672.923        2217.951          40.000    23807771.583    97488837.736        1729.875          30.000  
G24  23237541.933   122114113.023       -3508.769          42.000    23237542.120    95153851.928       -2734.386          35.000  
S29  38307950.687   201309633.994        -528.249          41.000  
G18  23168762.220   121752677.389       -3177.072          41.000    23168762.430                       -2479.790          29.000  
C08  37868002.719   197188618.875         273.296          35.000    37867994.907   152478725.6831        213.616          33.000  
C38  37441480.702   194967623.314         -22.418          41.000                                                                  
C13  38078992.170   198287303.0931        369.290          41.000    38078991.269   153328336.462         285.740          36.000  
C09  38695202.626   201496072.953         -20.915          34.000    38695198.111   155809533.219         -16.965          31.000  
C16  37922682.348   197473366.400        -363.491          36.000    37922680.882   152698919.7161       -282.003          37.000  
C23  23573601.722   122753931.416         350.144          43.000                                                                  
R09  21293390.353   113705527.576        1231.413          42.000    21293387.177    88437605.830         956.533          36.000  
R16  22915076.817                       -2632.654          27.000                                                                  
G12  24229037.086   127324452.360         951.178          43.000    24229034.002    99213850.668         741.823          31.000  
S37  37903331.756   199183349.835        -528.383          39.000  
E21  28093824.624   147634065.654        1803.481          37.000    28093832.616   113122225.767        1384.436          28.000  
E27  27857338.446   146391297.069         530.178          38.000    27857345.897   112169988.335         405.460          37.000  
C37  25695053.424   133800880.250        2485.377          37.000                                                                  
C39  37377876.762   194636415.660        -525.800          38.000                                                                  
C06  37526900.465   195412408.033        -169.860          37.000    37526893.806   151105245.2651       -133.734          30.000  
E29  25964960.215   136446821.721       -1293.667          42.000    25964960.989   104550137.5391       -990.271          37.000  
J03  37385374.145   196461478.372        -649.225          42.000    37385376.038                        -505.209          32.000  
E26  26696322.892   140290155.712       -3222.562          38.000    26696327.643                       -2470.209          36.000  
J04                                                                  40580279.390   166169469.566          88.175          33.000  
R21                                                                  23701397.014                       -3168.345          30.000  
G28                                                                  24885038.624                        1910.684          20.000  
> 2025 10 27 02 06 04.0050000  0 27                     
G23  21610534.887   113564158.308         170.998          47.000    21610530.611    88491512.678         133.021          38.000  
G25  23807348.286   125108455.261        2216.710          43.000    23807349.525    97487109.722        1728.345          30.000  
G24  23238210.070   122117621.844       -3508.077          47.000    23238209.780    95156585.918       -2733.765          35.000  
S29  38308051.738   201310164.609        -531.473          44.000  
G18  23169367.328   121755856.961       -3181.475          39.000    23169367.829    94874687.3911      -2477.354          29.000  
C08  37867950.129   197188345.214         274.067          41.000    37867942.390   152478514.155         211.633          39.000  
C38  37441484.868   194967645.469         -21.783          42.000                                                                  
C13  38078920.865   198286933.950         369.683          41.000    38078921.373   153328051.119         285.487          38.000  
C09  38695207.428   201496097.763         -25.109          38.000    38695203.253   155809552.468         -19.292          28.000  
C16  37922752.809   197473733.003        -365.186          39.000    37922751.870                1       -282.330          29.000  
C23  23573534.392   122753581.286         350.106          43.000                                                                  
R21  23702158.310   126835036.5553      -4082.243          45.000    23702158.540    98649473.1043      -3173.048          25.000  
R09  21293159.888   113704296.808        1230.682          47.000    21293156.741    88436648.798         956.235          40.000  
R16  22915567.395   122410847.1293      -2634.176          36.000                                                                  
G12  24228855.699   127323499.367         953.315          44.000    24228852.715    99213107.924         744.589          32.000  
S37  37903432.441   199183878.553        -529.325          44.000  
E21  28093481.671   147632262.024        1802.743          40.000    28093491.452   113120848.0451       1382.343          28.000  
E27  27857238.054   146390766.077         531.268          49.000    27857244.561   112169581.351         408.393          39.000  
C37  25694576.530   133798402.5383       2481.371          39.000                                                                  
C39  37377977.804   194636942.464        -527.502          43.000                                                                  
C06  37526933.300   195412579.157        -170.845          38.000    37526925.462   151105378.1533       -133.562          33.000  
R06  22730272.852   121293090.9242       -561.204          35.000                                                                  
E29  25965205.108   136448116.142       -1293.483          46.000    25965207.821   104551129.475        -990.839          42.000  
J03  37385497.580   196462126.696        -651.154          44.000    37385499.512                        -508.093          28.000  
E26  26696936.876   140293379.443       -3224.628          44.000    26696938.003                       -2466.867          28.000  
J04                                                                  40580258.629   166169382.303          87.869          37.000  
G28                                                                  24884568.229                        1911.293          19.000  
> 2025 10 27 02 06 05.0050000  0 28                     
G23  21610502.363   113563987.186         171.459          44.000    21610498.179    88491379.402         133.268          37.000  
G25  23806926.220   125106236.807        2218.642          38.000    23806927.644    97485380.915        1729.940          29.000  
G24  23238877.568   122121129.456       -3507.186          43.000    23238876.231    95159319.308       -2732.952          37.000  
S29  38308152.837   201310695.303        -527.940          38.000  
G18  23169972.497   121759036.825       -3178.109          41.000    23169971.885    94877161.250       -2477.608          30.000  
C08  37867897.424   197188070.895         275.640          39.000    37867889.394   152478302.053         213.668          36.000  
C38  37441488.917   194967666.825         -20.282          41.000                                                                  
C13  38078849.742   198286564.376         370.166          39.000    38078849.954   153327765.333         286.944          37.000  
C09  38695212.200   201496122.587         -23.982          36.000    38695209.494   155809571.599         -18.939          32.000  
C16  37922823.092   197474099.524        -365.889          40.000    37922823.858                        -283.390          26.000  
C23  23573466.984   122753230.950         351.443          41.000                                                                  
R21  23702920.264   126839113.9332      -4079.886          44.000    23702920.501    98652644.7772      -3172.500          30.000  
R09  21292929.361   113703065.942        1231.410          45.000    21292926.282    88435691.308         959.427          34.000  
R22  22992541.778   122735748.9363       -972.056          34.000                                                                  
R16  22916066.078                       -2632.824          28.000    22916073.864                       -2059.375          27.000  
G12  24228674.109   127322545.153         956.163          34.000    24228672.642                         738.742          29.000  
S37  37903532.951   199184406.476        -527.037          39.000  
G28  24884053.074   130766580.5663       2452.984          34.000    24884102.101                        1909.548          20.000  
E21  28093138.337   147630457.453        1805.044          34.000    28093148.949                        1377.427          17.000  
E27  27857136.889   146390233.658         532.383          43.000    27857145.475   112169180.6211        405.505          40.000  
C37  25694100.497                        2481.605          35.000                                                                  
C39  37378078.935   194637469.037        -525.183          40.000                                                                  
C06  37526966.233   195412750.323        -169.332          36.000    37526958.995   151105510.4362       -131.370          28.000  
R06  22730389.284   121293649.9932       -558.461          34.000                                                                  
E29  25965451.129   136449409.752       -1292.705          42.000    25965453.872   104552120.594        -990.551          41.000  
J03  37385620.862   196462774.219        -646.893          34.000    37385624.093                        -502.510          28.000  
E26  26697550.263   140296602.771       -3220.460          36.000    26697554.105                       -2468.555          29.000  
J04                                                                  40580237.568   166169294.158          88.534          34.000  
> 2025 10 27 02 06 06.0050000  0 27                     
G23  21610469.544   113563814.833         171.044          41.000    21610465.305    88491245.003         134.030          37.000  
G25  23806503.929   125104017.457        2218.996          36.000    23806505.394    97483659.6361       1728.769          28.000  
G24  23239544.906   122124635.857       -3506.237          41.000    23239543.941    95162051.479       -2731.762          37.000  
S29  38308253.492   201311224.169        -527.598          37.000  
G18  23170577.432   121762215.603       -3179.966          40.000    23170575.167    94879638.111       -2477.380          31.000  
C08  37867844.380   197187794.856         276.041          35.000    37867836.559   152478088.573         213.584          38.000  
C38  37441492.713   194967686.675         -18.671          39.000                                                                  
C13  38078776.310   198286192.772         372.638          38.000    38078778.720   153327478.021         288.226          38.000  
C09  38695216.611   201496145.684         -22.276          35.000    38695214.086   155809592.3453        -17.042          27.000  
C16  37922893.134   197474464.198        -364.543          38.000    37922893.257                        -281.010          27.000  
C23  23573399.507   122752879.675         351.146          41.000                                                                  
R21  23703679.318   126843192.6332      -4079.580          38.000    23703682.717    98655817.2582      -3171.344          30.000  
R09  21292698.851   113701834.483        1231.413          42.000    21292695.793    88434733.515         957.194          37.000  
R22  22992722.332   122736712.4013       -977.641          26.000                                                                  
G12  24228492.444   127321590.371         954.456          40.000    24228490.808    99211619.4551        746.099          33.000  
S37  37903633.314   199184933.051        -525.599          37.000  
G28  24883574.411   130764065.8452       2451.038          33.000    24883629.697                        1922.412          21.000  
E21  28092795.092   147628651.588        1805.555          30.000    28092805.593                        1381.625          28.000  
E27  27857035.577   146389700.543         533.172          41.000    27857043.403   112168772.008         407.996          37.000  
C37  25693622.436   133793433.5183       2484.369          38.000                                                                  
C39  37378179.703   194637993.967        -524.774          39.000                                                                  
C06  37526998.605   195412919.753        -169.233          35.000    37526992.690   151105641.4292       -130.099          28.000  
R06  22730496.210   121294207.4952       -556.303          30.000                                                                  
E29  25965699.381   136450701.332       -1290.494          38.000    25965699.372   104553110.227        -989.105          41.000  
J03  37385741.910   196463399.2493       -646.783          35.000    37385749.151   153088392.6181       -505.054          29.000  
E26  26698163.893   140299825.035       -3221.061          36.000    26698166.790                       -2474.991          30.000  
J04                                                                  40580216.266   166169204.711          89.442          35.000  
> 2025 10 27 02 06 07.0050000  0 27                     
G23  21610436.736   113563642.379         173.365          43.000    21610432.574    88491110.664         134.440          38.000  
G25  23806081.675   125101798.444        2219.895          34.000    23806083.377    97481931.369        1730.314          29.000  
G24  23240212.052   122128141.290       -3504.271          41.000    23240211.030    95164783.021       -2731.084          39.000  
S29  38308354.182   201311753.354        -528.209          37.000  
G18  23171182.578   121765395.113       -3177.502          39.000    23171180.908    94882111.4871      -2476.391          26.000  
C08  37867791.177   197187518.259         277.462          40.000    37867783.465   152477874.727         214.403          38.000  
C38  37441496.539   194967706.126         -17.743          43.000                                                                  
C13  38078706.485   198285820.611         373.781          40.000    38078707.775   153327190.267         288.668          40.000  
C09  38695221.042   201496169.363         -22.948          37.000    38695217.805   155809610.5212        -17.108          31.000  
C16  37922963.141   197474829.250        -364.288          41.000    37922963.237   152700057.7523       -280.202          25.000  
C23  23573332.026   122752528.783         351.785          43.000                                                                  
R21  23704443.270   126847272.066       -4079.046          37.000    23704444.206    98658989.7171      -3171.238          30.000  
R09  21292468.476   113700603.669        1232.003          39.000    21292465.415    88433776.063         958.059          34.000  
R22  22992897.310                        -978.425          36.000                                                                  
G12  24228310.810   127320635.593         955.556          39.000    24228310.573                         744.545          28.000  
S37  37903733.635   199185459.659        -526.028          37.000  
G28  24883104.310   130761594.9692       2452.089          36.000    24883156.852                        1911.840          33.000  
E21  28092450.536   147626846.148        1805.257          30.000    28092462.709                        1380.177          26.000  
E27  27856933.881   146389166.962         535.197          40.000    27856941.149   112168363.125         411.527          35.000  
C37  25693146.862                        2483.634          32.000                                                                  
C39  37378280.510   194638518.935        -524.365          42.000                                                                  
C06  37527031.283   195413089.697        -168.896          37.000    37527025.735                        -131.200          28.000  
R06  22730604.011   121294763.9162       -554.584          29.000                                                                  
E29  25965944.239   136451992.087       -1289.763          43.000    25965944.740   104554099.251        -988.200          39.000  
J03  37385865.835   196464046.1302       -644.415          32.000    37385873.617                        -499.517          28.000  
E26  26698777.672   140303047.968       -3223.392          39.000    26698780.532   107504925.0941      -2467.474          32.000  
J04                                                                  40580194.295   166169114.869          90.601          33.000  
> 2025 10 27 02 06 08.0050000  0 29                     
G23  21610403.861   113563469.085         173.317          46.000    21610399.571    88490975.598         135.617          39.000  
G25  23805659.135   125099578.061        2221.302          37.000    23805664.818    97480217.1631       1731.057          28.000  
G24  23240878.976   122131645.830       -3504.832          44.000    23240877.839    95167513.637       -2730.551          37.000  
S29  38308454.705   201312281.413        -526.982          39.000  
G18  23171787.576   121768573.843       -3179.115          42.000    23171782.406    94884588.465       -2475.930          28.000  
C08  37867737.858   197187240.397         277.592          44.000    37867730.200   152477659.854         215.103          41.000  
C38  37441499.800   194967724.353         -17.206          45.000                                                                  
C13  38078635.052   198285447.368         372.822          44.000    38078636.074   153326901.521         289.223          42.000  
C09  38695225.556   201496191.993         -22.082          42.000    38695222.707   155809628.1122        -15.368          32.000  
C16  37923033.124   197475193.224        -364.252          46.000    37923033.776   152700342.2393       -282.321          27.000  
C23  23573264.416   122752176.974         352.108          46.000                                                                  
R21  23705205.199   126851350.768       -4078.279          43.000    23705205.919    98662161.931       -3171.616          31.000  
R09  21292237.787   113699372.098        1231.598          43.000    21292234.849    88432818.029         959.144          34.000  
R22  22993065.902   122738547.1913       -977.850          40.000                                                                  
R16  22917540.812                       -2633.999          25.000                                                                  
G12  24228128.927   127319679.562         956.863          44.000    24228126.685                         739.592          18.000  
S37  37903833.713   199185984.962        -524.839          41.000  
G28  24882635.402   130759142.4562       2453.814          40.000    24882679.691   101890413.0161       1911.578          28.000  
E21  28092111.212   147625039.9441       1808.606          29.000    28092120.868                        1377.929          26.000  
E27  27856831.953   146388632.084         535.221          42.000    27856843.182   112167963.3611        409.142          36.000  
C37  25692668.390   133788466.0003       2488.222          39.000                                                                  
C39  37378381.101   194639042.867        -523.285          45.000                                                                  
C06  37527063.739   195413258.462        -167.648          43.000    37527058.398   151105912.9473       -131.185          33.000  
R06  22730711.407   121295319.0352       -555.608          33.000                                                                  
R07  23108508.986   123701657.1722        666.673          43.000    23108490.099    96212321.0852        518.622          36.000  
E29  25966189.339   136453281.530       -1289.453          46.000    25966190.934   104555087.276        -987.903          42.000  
J03  37385990.093   196464691.8722       -642.438          38.000    37385994.591   153089397.5921       -502.832          27.000  
E26  26699390.877   140306269.516       -3219.834          38.000    26699391.957   107507393.578       -2464.721          33.000  
J04                                                                  40580172.150   166169023.827          91.846          33.000  
> 2025 10 27 02 06 09.0050000  0 29                     
G23  21610370.838   113563295.340         173.963          38.000    21610366.516    88490840.232         134.543          38.000  
G25  23805239.679   125097377.9683       2218.633          34.000    23805239.218                        1731.415          27.000  
G24  23241545.707   122135149.307       -3503.890          39.000    23241544.643    95170243.666       -2730.469          31.000  
S29  38308555.183   201312809.031        -526.883          40.000  
G18  23172392.544   121771752.794       -3178.995          41.000    23172391.393                       -2489.469          19.000  
C08  37867684.366   197186961.587         279.865          37.000    37867676.673   152477444.284         215.411          39.000  
C38  37441502.980   194967741.921         -18.182          39.000                                                                  
C13  38078563.261   198285072.970         374.705          39.000    38078564.395   153326611.980         289.289          39.000  
C09  38695229.933   201496214.554         -22.885          35.000    38695226.814   155809645.840         -18.571          28.000  
C16  37923103.002   197475556.734        -364.063          39.000    37923101.190   152700623.360        -280.764          32.000  
C23  23573196.728   122751825.265         350.706          41.000                                                                  
R21  23705968.054   126855429.487       -4080.045          39.000    23705970.481    98665338.6683      -3171.363          30.000  
R09  21292007.237   113698140.993        1230.101          39.000    21292005.130                         957.012          28.000  
R22  22993245.587   122739525.2082       -978.674          35.000                                                                  
R16  22918044.853                       -2628.226          25.000                                                                  
G12  24227947.089   127318723.745         953.111          38.000    24227946.775                         748.375          28.000  
S37  37903933.585   199186509.890        -524.738          35.000  
G28  24882167.858   130756689.9672       2453.077          38.000    24882198.116                        1910.479          28.000  
E21  28091771.026   147623252.177        1804.499          28.000    28091776.206                        1383.203          29.000  
E27  27856730.393   146388097.164         533.978          38.000    27856738.690   112167542.627         406.887          31.000  
C37  25692189.660   133785980.1891       2485.723          36.000                                                                  
C39  37378481.484   194639566.238        -523.328          41.000                                                                  
C06  37527096.106   195413426.951        -168.611          39.000    37527088.646   151106034.6552       -130.102          28.000  
R06  22730818.096   121295872.8962       -554.446          33.000                                                                  
R07  23108376.618   123700989.1002        668.313          42.000    23108365.461    96211801.4702        519.787          33.000  
E29  25966434.473   136454569.690       -1288.288          44.000    25966436.109   104556074.322        -987.362          41.000  
J03  37386113.583   196465337.6092       -645.691          39.000    37386117.466                        -502.106          26.000  
E26  26700004.045   140309491.419       -3221.824          36.000    26700007.925   107509862.567       -2468.017          26.000  
J04                                                                  40580149.709   166168931.986          91.318          36.000  
> 2025 10 27 02 06 10.0050000  0 28                     
G23  21610337.826   113563121.387         172.920          42.000    21610333.428    88490704.661         135.319          38.000  
G25  23804817.625   125095157.4812       2219.585          37.000    23804818.551                        1734.229          25.000  
G24  23242212.325   122138652.263       -3501.751          39.000    23242210.976    95172973.318       -2728.736          34.000  
S29  38308655.570   201313336.437        -528.835          40.000  
G18  23172997.479   121774931.673       -3178.472          35.000    23172997.220                       -2477.344          30.000  
C08  37867630.902   197186682.196         279.128          37.000    37867623.023   152477228.179         215.984          37.000  
C38  37441505.957   194967758.650         -16.766          42.000                                                                  
C13  38078491.265   198284697.812         375.814          40.000    38078492.544   153326321.919         289.344          38.000  
C09  38695234.055   201496236.969         -22.304          35.000    38695235.557   155809678.9293        -15.593          27.000  
C16  37923172.788   197475919.942        -364.164          39.000    37923172.583   152700901.2383       -281.611          32.000  
C23  23573129.261   122751473.407         350.948          42.000                                                                  
R21  23706730.390   126859508.288       -4080.192          37.000    23706731.628    98668511.1092      -3174.331          30.000  
R09  21291776.708   113696909.872        1229.627          39.000    21291775.328    88430915.6803        956.582          36.000  
R22  22993425.267   122740503.8262       -978.241          38.000                                                                  
G12  24227765.104   127317767.487         955.313          37.000    24227766.828                         748.056          23.000  
S37  37904033.487   199187034.205        -525.011          35.000  
G28  24881701.719   130754237.9112       2450.006          36.000    24881720.704   101886530.2441       1910.068          28.000  
E21  28091435.392                        1803.260          28.000    28091433.564                        1382.623          28.000  
E27  27856628.736   146387561.726         535.606          40.000    27856635.247                         407.246          31.000  
C37  25691712.468   133783494.917        2483.139          32.000                                                                  
C39  37378581.954   194640089.159        -524.481          41.000                                                                  
C06  37527128.287   195413595.042        -167.993          35.000    37527119.152   151106158.2313       -130.067          30.000  
R06  22730923.401   121296425.9982       -552.374          32.000                                                                  
R07  23108249.777   123700320.4772        669.658          42.000    23108239.790    96211281.4482        520.496          38.000  
E29  25966679.700   136455857.159       -1287.232          39.000    25966680.766   104557060.767        -985.967          40.000  
J03  37386236.224   196465983.0782       -646.338          37.000    37386238.310                        -502.175          26.000  
E26  26700617.167   140312713.290       -3223.253          40.000    26700618.195   107512324.9731      -2470.013          27.000  
J04                                                                  40580127.059   166168839.439          93.371          35.000  
> 2025 10 27 02 06 11.0050000  0 29                     
G23  21610304.917   113562948.046         172.925          43.000    21610300.529    88490569.610         134.762          38.000  
G25  23804391.364   125092937.7772       2219.340          37.000    23804396.893                        1716.885          24.000  
G24  23242878.996   122142155.456       -3502.819          35.000    23242877.258                       -2731.458          29.000  
S29  38308756.009   201313864.500        -529.387          39.000  
G18  23173602.699   121778111.876       -3181.264          36.000    23173602.049    94892025.6751      -2477.407          29.000  
C08  37867577.117   197186402.826         278.853          36.000    37867569.361   152477012.143         216.219          35.000  
C38  37441509.146   194967775.770         -16.687          39.000                                                                  
C13  38078419.248   198284322.872         374.770          39.000    38078420.587   153326031.992         290.361          41.000  
C09  38695238.585   201496260.270         -23.743          35.000    38695236.471   155809696.9292        -17.937          34.000  
C16  37923242.468   197476283.845        -364.832          37.000    37923240.387   152701182.6162       -284.321          31.000  
C23  23573061.958   122751122.404         350.343          41.000                                                                  
R21  23707492.760   126863588.047       -4081.370          40.000    23707493.910    98671680.0503      -3172.998          30.000  
R09  21291546.465   113695680.009        1227.106          37.000    21291545.146    88429960.0012        956.489          33.000  
R22  22993609.706   122741449.7943       -977.930          35.000                                                                  
G12  24227583.319   127316811.869         953.829          32.000    24227585.023                         746.237          23.000  
S37  37904133.417   199187559.052        -525.954          37.000  
G28  24881236.123   130751786.7972       2450.235          37.000    24881244.539   101884620.405        1908.831          28.000  
E21  28091078.648   147619614.6281       1806.807          28.000    28091086.022                        1383.793          27.000  
E27  27856526.971   146387026.650         535.270          39.000    27856534.633   112166721.0371        408.466          32.000  
C37  25691236.761   133781010.505        2483.875          35.000                                                                  
C39  37378682.424   194640612.749        -524.738          39.000                                                                  
C06  37527160.661   195413764.023        -170.234          35.000    37527152.201   151106288.8312       -131.393          29.000  
R06  22731027.251   121296978.5841       -553.854          26.000                                                                  
R07  23108124.045   123699651.6532        669.469          43.000    23108115.482    96210761.2492        520.112          36.000  
E29  25966924.673   136457144.516       -1287.718          41.000    25966925.634   104558047.231        -986.346          40.000  
J03  37386358.777   196466629.2672       -647.522          35.000    37386361.539                        -505.968          27.000  
E26  26701230.394   140315935.901       -3223.436          39.000    26701233.906   107514794.482       -2470.881          27.000  
E19  25773203.555                        -133.455          37.000    25773199.860                         -97.528          34.000  
J04                                                                  40580104.486   166168746.993          92.391          32.000  
> 2025 10 27 02 06 12.0050000  0 29                     
G23  21610272.012   113562774.770         172.643          43.000    21610267.613    88490434.553         135.630          35.000  
G25  23803974.865   125090718.3122       2218.174          40.000    23803976.112                        1729.652          24.000  
G24  23243545.636   122145658.182       -3502.087          31.000    23243543.844    95178426.4171      -2727.556          28.000  
S29  38308856.524   201314392.651        -528.830          39.000  
G18  23174207.981   121781292.558       -3181.042          37.000    23174208.281                       -2480.524          31.000  
C08  37867523.331   197186123.140         278.750          37.000    37867515.689   152476795.839         216.808          35.000  
C38  37441512.406   194967792.572         -17.596          42.000                                                                  
C13  38078347.111   198283947.530         374.303          39.000    38078348.624   153325741.777         290.653          41.000  
C09  38695243.179   201496283.706         -24.438          35.000    38695241.303   155809715.0952        -18.794          39.000  
C16  37923312.315   197476647.767        -365.343          38.000    37923312.643   152701463.9322       -282.788          31.000  
C23  23572994.630   122750771.671         349.537          42.000                                                                  
R21  23708255.250   126867668.276       -4082.701          39.000    23708255.013    98674853.7342      -3175.400          33.000  
R09  21291316.211   113694450.525        1228.540          38.000    21291313.959    88429003.8022        955.439          33.000  
R22  22993789.988   122742429.9442       -979.337          41.000    22993816.222                        -761.128          35.000  
G12  24227401.439   127315853.5593        957.269          35.000    24227405.436    99207175.1761        742.973          30.000  
S37  37904233.425   199188083.787        -525.533          37.000  
G28  24880769.866   130749336.3762       2448.330          38.000    24880774.647   101882710.999        1907.721          28.000  
E21  28090741.715   147617843.730        1806.494          29.000    28090739.698   113109767.8391       1383.081          29.000  
E27  27856425.438   146386491.351         535.424          38.000    27856432.267   112166310.736         411.349          32.000  
C37  25690760.152   133778526.478        2482.307          38.000                                                                  
C39  37378782.862   194641136.220        -524.292          41.000                                                                  
C06  37527193.048   195413933.029        -169.911          35.000    37527187.651   151106419.4922       -131.770          33.000  
R06  22731130.637   121297530.869        -550.985          25.000                                                                  
R07  23107998.528   123698982.2442        669.543          43.000    23107990.191    96210240.5892        520.389          38.000  
E29  25967170.103   136458431.245       -1286.995          40.000    25967170.369   104559033.139        -986.288          40.000  
J03  37386482.243   196467275.4912       -647.748          37.000    37386486.201                        -500.552          25.000  
E26  26701844.238   140319158.881       -3224.027          36.000    26701852.055                       -2472.369          29.000  
E19  25773226.308   135439218.0011       -134.486          37.000    25773226.005   103778100.4581       -103.494          37.000  
J04                                                                  40580081.875   166168654.047          93.086          35.000  
> 2025 10 27 02 06 13.0050000  0 30                     
G23  21610239.041   113562601.565         174.226          43.000    21610234.789    88490299.569         136.725          38.000  
G25  23803550.389   125088498.917        2219.848          37.000    23803556.748                        1730.329          30.000  
G24  23244210.898   122149151.8493      -3499.650          26.000    23244209.083    95181155.580       -2728.018          31.000  
S29  38308957.112   201314921.290        -527.174          40.000  
G18  23174813.556   121784474.193       -3178.165          40.000    23174814.915    94896992.3821      -2478.763          34.000  
C08  37867469.546   197185842.993         281.366          39.000    37867461.980   152476579.295         217.177          43.000  
C38  37441515.606   194967809.097         -16.040          41.000                                                                  
C13  38078274.882   198283571.673         377.672          41.000    38078276.493   153325451.121         291.381          41.000  
C09  38695247.544   201496307.784         -23.031          37.000    38695245.779   155809733.6262        -17.274          37.000  
C16  37923382.127   197477011.996        -363.223          39.000    37923381.722   152701745.6502       -281.726          35.000  
C23  23572927.181   122750421.357         351.466          41.000    23572729.093                         298.906          22.000  
R21  23709017.926   126871749.360       -4080.479          39.000    23709017.195                       -3173.354          35.000  
R09  21291086.059   113693221.788        1229.200          40.000    21291082.091    88428047.4411        956.883          36.000  
R22  22993971.490   122743380.4893       -981.561          34.000    22993988.506    95467144.6883       -761.466          41.000  
G12  24227219.772   127314897.6871        957.013          37.000    24227220.491    99206430.534         743.271          33.000  
S37  37904333.331   199188608.624        -522.406          34.000  
G28  24880303.873   130746886.2911       2450.414          40.000    24880307.957   101880802.198        1908.573          36.000  
E21  28090398.022                        1809.161          29.000    28090394.216   113108383.443        1385.953          29.000  
E27  27856323.559   146385955.828         536.531          37.000    27856331.246   112165900.239         409.904          35.000  
C37  25690282.516   133776043.206        2484.917          36.000                                                                  
C39  37378883.281   194641659.864        -522.522          39.000                                                                  
C06  37527225.484   195414102.517        -168.158          35.000    37527218.487   151106550.0742       -129.987          29.000  
R06  22731233.486                1       -549.111          24.000                                                                  
R07  23107873.447   123698312.220         670.367          44.000    23107865.330    96209718.9091        522.098          41.000  
E29  25967414.744   136459717.358       -1285.254          42.000    25967415.036   104560018.648        -984.347          41.000  
J03  37386605.305   196467921.7251       -645.422          37.000    37386612.483   153091927.8241       -503.625          36.000  
E26  26702457.717   140322382.459       -3222.097          39.000    26702454.972   107519720.7441      -2466.153          27.000  
G10  23790212.011   125018407.7393       2221.032          43.000                                                                  
E19  25773249.292   135439352.929        -134.067          34.000    25773251.656   103778203.830        -103.320          39.000  
J04                                                                  40580058.997   166168560.817          94.857          34.000  
> 2025 10 27 02 06 14.0050000  0 29                     
G23  21610206.206   113562428.739         172.117          44.000    21610201.965    88490164.863         134.093          41.000  
G25  23803126.873   125086279.759        2220.227          40.000    23803140.836                        1728.343          25.000  
G24  23244878.112                       -3503.280          26.000    23244880.493                       -2731.126          24.000  
S29  38309057.790   201315449.796        -528.276          41.000  
G18  23175419.034   121787655.978       -3180.028          39.000    23175417.988    94899471.784       -2479.946          35.000  
C08  37867415.619   197185562.751         280.424          39.000    37867408.230   152476362.602         217.246          40.000  
C38  37441518.680   194967825.551         -16.858          40.000                                                                  
C13  38078202.798   198283195.831         376.118          39.000    38078204.418   153325160.501         290.035          42.000  
C09  38695252.199   201496331.921         -24.189          35.000    38695250.271   155809752.3222        -18.268          40.000  
C16  37923452.145   197477376.167        -363.297          38.000    37923451.647   152702027.2112       -280.909          33.000  
C23  23572859.826   122750071.457         350.422          39.000                                                                  
R21  23709780.508   126875830.415       -4080.268          40.000    23709776.411    98681179.9133      -3171.870          32.000  
R09  21290856.040   113691993.655        1229.242          41.000    21290852.430    88427092.227         956.573          32.000  
R22  22994152.485   122744346.9613       -982.089          39.000    22994165.985    95467908.4962       -763.131          36.000  
G12  24227038.392   127313945.6723        954.982          33.000    24227038.782    99205686.242         742.814          33.000  
S37  37904433.178   199189133.451        -525.126          35.000  
G28  24879837.797   130744436.885        2450.625          35.000    24879842.877   101878893.557        1907.850          31.000  
E21  28090048.011   147614231.1571       1807.791          28.000    28090052.293   113106998.998        1385.445          30.000  
E27  27856222.003   146385420.459         535.151          31.000    27856230.277                         414.221          26.000  
C37  25689804.883   133773560.035        2482.915          35.000                                                                  
C39  37378983.854   194642183.579        -523.480          38.000                                                                  
C06  37527258.059   195414272.038        -169.990          33.000    37527251.285   151106681.1352       -130.845          36.000  
R07  23107748.097   123697641.799         670.702          47.000    23107740.210    96209197.499         520.913          39.000  
E29  25967659.755   136461003.237       -1286.448          40.000    25967659.592   104561003.974        -985.140          42.000  
J03  37386728.444   196468568.409        -644.861          35.000    37386738.097   153092442.6411       -503.992          33.000  
E26  26703071.408   140325606.214       -3222.500          34.000    26703071.605   107522191.087       -2469.628          29.000  
G10  23789789.529   125016186.5871       2220.753          44.000                                                                  
E19  25773276.386   135439487.829        -135.662          33.000    25773277.420   103778307.105        -103.243          39.000  
J04                                                                  40580036.095   166168467.356          95.265          37.000  
> 2025 10 27 02 06 15.0050000  0 29                     
G23  21610173.296   113562255.272         173.161          38.000    21610168.938    88490029.587         135.083          35.000  
G25  23802704.009   125084060.901        2218.880          32.000    23802715.069                        1727.861          27.000  
G24  23245544.430                       -3497.755          24.000    23245546.782                       -2721.905          22.000  
S29  38309158.165   201315977.270        -527.169          38.000  
G18  23176024.568   121790837.759       -3180.756          37.000    23176021.469    94901951.028       -2479.834          34.000  
C08  37867361.724   197185281.451         281.088          33.000    37867354.328   152476145.073         217.588          40.000  
C38  37441521.511   194967841.253         -16.064          36.000                                                                  
C13  38078130.325   198282818.511         376.696          35.000    38078131.947   153324868.541         292.992          31.000  
C09  38695256.673   201496355.364         -23.418          33.000    38695254.889   155809770.468         -17.493          38.000  
C16  37923521.864   197477739.723        -363.148          33.000    37923521.896   152702308.386        -281.858          34.000  
C23  23572792.507   122749721.602         348.999          35.000                                                                  
R21  23710543.028   126879911.015       -4079.871          36.000    23710540.454    98684359.6823      -3172.784          31.000  
R09  21290626.184   113690765.962        1227.221          38.000    21290622.430    88426137.301         955.503          35.000  
R22  22994333.611   122745327.9172       -981.431          39.000    22994346.837    95468671.3752       -760.896          38.000  
G12  24226858.847   127312990.8442        954.854          31.000    24226861.530                         735.687          20.000  
S37  37904532.953   199189657.822        -525.356          35.000  
G28  24879371.470   130741978.5543       2450.357          34.000    24879376.865   101876984.592        1909.063          31.000  
E21  28089705.394                        1807.602          28.000    28089709.761   113105614.685        1384.947          35.000  
E27  27856119.838   146384885.283         536.222          26.000    27856126.858                         410.093          25.000  
C37  25689328.025   133771072.2183       2481.575          29.000                                                                  
C39  37379084.199   194642706.384        -523.401          36.000                                                                  
C06  37527290.485   195414440.813        -168.244          32.000    37527283.733   151106811.651        -130.244          30.000  
R07  23107622.371   123696969.324         671.936          40.000    23107614.652    96208674.418         523.177          38.000  
E29  25967904.105   136462287.678       -1284.668          39.000    25967904.651   104561988.108        -984.088          43.000  
J03  37386851.739                1       -646.037          29.000    37386862.425   153092951.639        -505.817          38.000  
E26  26703684.684   140328829.872       -3223.508          34.000    26703684.245   107524661.172       -2470.062          30.000  
G10  23789366.641   125013964.018        2222.569          40.000                                                                  
E19  25773300.788   135439620.799        -133.188          30.000    25773303.987   103778409.063        -101.982          39.000  
J04                                                                  40580012.974   166168373.172          94.291          37.000  
> 2025 10 27 02 06 16.0050000  0 29                     
G23  21610140.335   113562081.958         174.499          36.000    21610135.916    88489894.683         136.540          37.000  
G25  23802281.727   125081842.035        2219.925          33.000    23802293.785                        1731.536          27.000  
G24  23246214.962                       -3508.808          21.000    23246214.738                       -2735.582          21.000  
S29  38309258.729   201316505.147        -526.370          35.000  
G18  23176630.279   121794020.150       -3180.581          33.000    23176628.739    94904430.845       -2478.638          36.000  
C08  37867307.591   197184999.815         283.452          35.000    37867300.283   152475927.268         218.721          40.000  
C38  37441524.443   194967856.593         -13.428          37.000                                                                  
C13  38078057.839   198282440.968         379.111          37.000    38078059.431   153324576.809         292.666          34.000  
C09  38695261.328   201496379.333         -22.958          33.000    38695259.221   155809788.997         -17.634          34.000  
C16  37923591.823   197478103.512        -362.284          35.000    37923591.309   152702589.586        -279.591          35.000  
C23  23572725.315   122749372.007         351.636          35.000                                                                  
R21  23711305.793   126883992.267       -4078.800          33.000    23711302.475    98687534.1792      -3174.494          30.000  
R09  21290396.331   113689538.729        1229.142          37.000    21290394.238                1        952.866          17.000  
R22  22994519.624   122746310.0602       -981.531          41.000    22994530.023                        -765.369          33.000  
G12  24226675.304   127312037.2033        958.352          30.000    24226683.612                         745.028          23.000  
S37  37904632.798   199190181.970        -523.810          34.000  
G28  24878904.212   130739529.6062       2449.236          30.000    24878910.584   101875076.249        1909.396          32.000  
E21  28089357.315   147610568.6801       1805.701          30.000    28089365.909   113104230.178        1385.119          36.000  
E27  27856018.057   146384349.705         535.899          32.000    27856024.647                         409.602          25.000  
C37  25688851.682   133768589.4402       2482.889          34.000                                                                  
C39  37379184.624   194643229.284        -521.844          38.000                                                                  
C06  37527322.869   195414609.863        -168.052          34.000    37527316.325   151106942.447        -129.652          37.000  
R07  23107496.585   123696296.576         675.300          43.000    23107489.067    96208151.206         524.796          38.000  
E29  25968148.264   136463571.742       -1282.082          35.000    25968149.199   104562971.949        -982.440          45.000  
J03  37386975.327   196469881.3963       -646.490          32.000    37386982.750   153093455.541        -502.698          32.000  
E26  26704297.857   140332053.821       -3221.951          31.000    26704299.931   107527131.491       -2469.186          31.000  
G10  23788943.685   125011741.569        2224.512          39.000                                                                  
E19  25773326.532   135439754.072        -131.858          32.000    25773328.388   103778511.172        -100.699          37.000  
J04                                                                  40579989.847   166168278.418          96.574          37.000  
> 2025 10 27 02 06 17.0050000  0 29                     
G23  21610107.310   113561908.431         172.184          39.000    21610102.830    88489759.416         133.669          35.000  
G25  23801859.486   125079622.921        2219.616          34.000    23801877.548    97464709.1561       1729.627          25.000  
G24  23246885.144                       -3502.043          21.000                                                                  
S29  38309358.954   201317032.147        -528.521          36.000  
G18  23177235.874   121797202.237       -3183.720          34.000    23177234.327    94906910.291       -2480.978          35.000  
C08  37867253.472   197184717.625         281.499          35.000    37867246.182   152475709.037         217.675          36.000  
C38  37441527.387   194967871.513         -16.364          38.000                                                                  
C13  38077985.134   198282062.634         377.276          36.000    38077986.621   153324284.182         291.114          37.000  
C09  38695265.835   201496402.551         -24.017          33.000    38695263.413   155809807.002         -19.464          35.000  
C16  37923661.593   197478466.540        -364.673          35.000    37923660.791   152702870.412        -282.231          32.000  
C23  23572658.145   122749022.402         347.948          35.000                                                                  
R21  23712068.318   126888072.936       -4080.904          32.000    23712062.736    98690707.3301      -3173.663          25.000  
R09  21290166.499   113688311.785        1225.025          39.000    21290164.950    88424227.0063        951.165          32.000  
R22  22994702.786   122747291.842        -982.557          42.000    22994711.350    95470156.4603       -766.101          33.000  
G12  24226493.936   127311082.0602        954.446          34.000    24226503.323                         739.556          22.000  
S37  37904732.439   199190705.653        -523.945          32.000  
G28  24878438.000   130737080.0542       2447.131          33.000    24878443.803   101873067.5481       1907.619          31.000  
E21  28089014.020   147608761.523        1804.435          30.000    28089021.293   113102845.475        1383.932          33.000  
E27  27855916.022   146383814.034         534.757          29.000    27855923.207   112164259.2191        410.932          24.000  
C37  25688375.339   133766106.0312       2482.383          34.000                                                                  
C39  37379284.883   194643751.537        -523.907          37.000                                                                  
C06  37527355.185   195414778.275        -169.570          34.000    37527348.677   151107072.696        -130.986          35.000  
R07  23107370.731   123695622.957         673.304          43.000    23107363.274    96207627.206         524.220          36.000  
E29  25968392.402   136464854.930       -1283.738          36.000    25968393.502   104563955.245        -983.762          42.000  
J03  37387100.853   196470527.9452       -647.327          36.000    37387105.216   153093945.2301       -505.981          34.000  
E26  26704911.301   140335277.522       -3224.790          32.000    26704911.102   107529601.447       -2470.158          32.000  
G10  23788520.619   125009518.399        2222.200          41.000                                                                  
E19  25773351.355   135439886.425        -133.462          36.000    25773353.367   103778612.592        -102.285          37.000  
J04                                                                  40579966.711   166168183.454          93.452          33.000  
> 2025 10 27 02 06 18.0050000  0 29                     
G23  21610074.342   113561734.862         168.666          39.000    21610069.853    88489624.106         131.959          31.000  
G25  23801437.195   125077403.737        2216.358          30.000    23801464.113                        1728.511          25.000  
G24  23247551.873                       -3516.710          19.000    23247551.093                       -2730.752          19.000  
S29  38309459.134   201317558.512        -530.655          39.000  
G18  23177841.311   121800384.023       -3187.299          34.000    23177838.692    94909389.614       -2481.429          34.000  
C08  37867199.247   197184434.904         278.130          37.000    37867192.012   152475490.391         214.570          34.000  
C38  37441530.174   194967885.937         -18.054          37.000                                                                  
C13  38077912.351   198281683.697         374.812          38.000    38077913.749   153323991.149         290.173          35.000  
C09  38695270.190   201496425.397         -28.009          36.000    38695267.814   155809824.681         -21.237          35.000  
C16  37923731.106   197478829.227        -367.069          38.000    37923730.543   152703150.837        -284.303          32.000  
C23  23572590.895   122748672.802         344.960          35.000                                                                  
R21  23712830.809   126892153.031       -4082.441          35.000    23712823.082    98693880.806       -3176.107          27.000  
R09  21289936.773   113687085.150        1222.192          34.000    21289934.524                         952.008          28.000  
R22  22994887.222   122748273.601        -986.279          40.000    22994893.655    95470920.0752       -768.434          34.000  
G12  24226310.135   127310118.2503        950.426          34.000    24226323.225                         735.259          22.000  
S37  37904831.993   199191228.877        -527.761          33.000  
G28  24877973.031   130734630.0162       2445.428          33.000    24877975.540   101871158.464        1906.544          30.000  
E21  28088672.331   147606953.626        1803.027          34.000    28088677.749   113101460.365        1381.313          34.000  
E27  27855814.327   146383278.406         530.937          34.000    27855820.354                         405.005          24.000  
C37  25687897.596   133763622.2822       2480.559          35.000                                                                  
C39  37379385.125   194644273.407        -526.044          41.000                                                                  
C06  37527387.460   195414946.309        -172.600          37.000    37527381.002   151107202.515        -132.881          35.000  
R07  23107244.599   123694948.430         670.187          43.000    23107237.312    96207102.643         520.583          37.000  
E29  25968636.237   136466137.441       -1285.954          35.000    25968637.595   104564937.990        -985.772          42.000  
J03  37387221.741   196471173.7832       -648.352          36.000    37387227.304   153094448.637        -507.581          36.000  
E26  26705524.060   140338500.724       -3228.670          35.000    26705524.653   107532071.324       -2473.640          32.000  
G10  23788097.442   125007294.461        2219.731          40.000                                                                  
E19  25773376.409   135440018.019        -136.226          36.000    25773378.388   103778713.419        -104.106          38.000  
J04                                                                  40579943.254   166168087.644          92.172          32.000  
> 2025 10 27 02 06 19.0050000  0 30                     
G23  21610041.452   113561561.660         171.950          39.000    21610038.656    88489495.2521        133.406          34.000  
G25  23801014.916   125075177.0573       2219.918          38.000    23801041.494    97461286.0391       1730.919          26.000  
S29  38309559.267   201318084.761        -527.201          40.000  
G18  23178446.914   121803566.324       -3182.236          41.000    23178443.776    94911869.314       -2479.484          35.000  
C08  37867144.924   197184152.109         283.300          38.000    37867137.824   152475271.782         218.589          36.000  
C38  37441533.213   194967900.522         -13.757          42.000                                                                  
C13  38077839.453   198281304.565         378.423          38.000    38077840.878   153323698.035         292.240          35.000  
C09  38695274.527   201496448.298         -22.709          40.000    38695272.373   155809842.447         -18.689          38.000  
C16  37923800.649   197479191.962        -362.491          39.000    37923800.285   152703431.300        -280.387          34.000  
C23  23572523.896   122748323.934         349.036          38.000                                                                  
R21  23713593.233   126896233.431       -4080.943          38.000    23713586.813    98697054.380       -3172.930          28.000  
R09  21289707.177   113685859.575        1226.118          41.000    21289705.784    88422320.8213        953.242          35.000  
R22  22995070.933   122749255.500        -982.870          43.000    22995074.928    95471683.2911       -766.812          32.000  
G12  24226127.001   127309156.1452        953.840          30.000    24226139.008                         743.998          29.000  
S37  37904931.723   199191752.283        -521.864          36.000  
G28  24877506.586   130732179.6831       2451.283          34.000    24877507.537   101869249.602        1908.585          34.000  
E21  28088329.842   147605146.431        1808.724          34.000    28088333.150   113100075.438        1386.536          30.000  
E27  27855712.597   146382743.594         534.753          33.000    27855721.036   112163444.9861        411.019          26.000  
C37  25687421.354   133761138.9372       2481.442          37.000                                                                  
C39  37379485.378   194644795.282        -522.107          42.000                                                                  
C06  37527419.711   195415114.426        -169.026          37.000    37527413.417   151107332.537        -130.155          35.000  
R07  23107118.356   123694273.333         675.046          48.000    23107111.193    96206577.539         524.941          34.000  
R10  23739699.141                        3645.000          28.000                                                                  
E29  25968880.285   136467419.800       -1283.072          40.000    25968881.353   104565920.616        -982.780          37.000  
J03  37387346.903   196471819.9051       -646.033          41.000    37387348.025   153094952.384        -501.910          33.000  
E26  26706137.571   140341724.457       -3221.770          35.000    26706140.288   107534541.403       -2468.757          35.000  
G10  23787674.172   125005070.364        2222.919          42.000                                                                  
E19  25773401.631   135440149.199        -131.470          39.000    25773403.272   103778813.915        -100.980          38.000  
G24                                                                  23248219.913                       -2722.295          19.000  
J04                                                                  40579919.897   166167992.079          95.922          28.000  
